{"cities":[{"name":"xLiverpool","lat":"53.497000000","lng":"-3.056000000","src":"Met Office","forecastDate":["2023-11-13","2023-11-14","2023-11-15","2023-11-16","2023-11-17"],"maxTemp":["12","12","11","10","11"],"minTemp":["","10","10","8","8"],"weatherIcon":[2101,1201,1201,901,2301]},{"name":"London","lat":"51.504722000","lng":"-0.131111000","src":"Met Office","forecastDate":["2023-11-13","2023-11-14","2023-11-15","2023-11-16","2023-11-17"],"maxTemp":["15","14","12","11","11"],"minTemp":["","11","9","6","6"],"weatherIcon":[1502,2301,2402,1502,2301]},{"name":"Londonderry (Derry)","lat":"55.057000000","lng":"-7.008000000","src":"Met Office","forecastDate":["2023-11-13","2023-11-14","2023-11-15","2023-11-16","2023-11-17"],"maxTemp":["10","11","10","9","10"],"minTemp":["","8","8","5","5"],"weatherIcon":[1502,1502,2301,1201,2301]},{"name":"Manchester","lat":"53.350000000","lng":"-2.270000000","src":"Met Office","forecastDate":["2023-11-13","2023-11-14","2023-11-15","2023-11-16","2023-11-17"],"maxTemp":["12","12","10","9","10"],"minTemp":["","9","9","6","5"],"weatherIcon":[1201,1201,901,1502,2301]},{"name":"Newcastle","lat":"54.980000000","lng":"-1.600000000","src":"Met Office","forecastDate":["2023-11-13","2023-11-14","2023-11-15","2023-11-16","2023-11-17"],"maxTemp":["12","12","10","9","10"],"minTemp":["","9","8","5","4"],"weatherIcon":[1502,2101,2101,1201,2301]},{"name":"Norwich","lat":"52.630000000","lng":"1.280000000","src":"Met Office","forecastDate":["2023-11-13","2023-11-14","2023-11-15","2023-11-16","2023-11-17"],"maxTemp":["14","12","11","9","9"],"minTemp":["","10","8","5","6"],"weatherIcon":[1201,2101,2402,2301,2301]},{"name":"Plymouth","lat":"50.354000000","lng":"-4.121000000","src":"Met Office","forecastDate":["2023-11-13","2023-11-14","2023-11-15","2023-11-16","2023-11-17"],"maxTemp":["14","13","12","12","12"],"minTemp":["","12","10","8","8"],"weatherIcon":[2101,2101,2301,1201,2301]},{"name":"Reading","lat":"51.441000000","lng":"-0.938000000","src":"Met Office","forecastDate":["2023-11-13","2023-11-14","2023-11-15","2023-11-16","2023-11-17"],"maxTemp":["15","13","11","11","11"],"minTemp":["","10","8","6","6"],"weatherIcon":[1201,2301,2402,1502,2301]},{"name":"Rhayader","lat":"52.241000000","lng":"-3.376000000","src":"Met Office","forecastDate":["2023-11-13","2023-11-14","2023-11-15","2023-11-16","2023-11-17"],"maxTemp":["12","11","9","8","9"],"minTemp":["","9","7","5","5"],"weatherIcon":[1201,1201,2301,1201,2301]},{"name":"Southampton","lat":"50.901000000","lng":"-1.403000000","src":"Met Office","forecastDate":["2023-11-13","2023-11-14","2023-11-15","2023-11-16","2023-11-17"],"maxTemp":["15","14","12","12","12"],"minTemp":["","12","10","8","8"],"weatherIcon":[1201,1201,2301,1502,2301]},{"name":"Swansea","lat":"51.565000000","lng":"-3.981000000","src":"Met Office","forecastDate":["2023-11-13","2023-11-14","2023-11-15","2023-11-16","2023-11-17"],"maxTemp":["14","13","12","11","12"],"minTemp":["","11","10","8","8"],"weatherIcon":[2301,1201,2301,901,2301]},{"name":"Truro","lat":"50.218000000","lng":"-5.330000000","src":"Met Office","forecastDate":["2023-11-13","2023-11-14","2023-11-15","2023-11-16","2023-11-17"],"maxTemp":["15","13","12","12","13"],"minTemp":["","12","10","8","9"],"weatherIcon":[2402,2101,2301,2301,2301]},{"name":"Ullapool","lat":"57.725000000","lng":"-4.896000000","src":"Met Office","forecastDate":["2023-11-13","2023-11-14","2023-11-15","2023-11-16","2023-11-17"],"maxTemp":["9","8","8","8","9"],"minTemp":["","7","5","4","5"],"weatherIcon":[2301,2301,2301,2301,2301]},{"name":"Wick","lat":"58.545000000","lng":"-3.089000000","src":"Met Office","forecastDate":["2023-11-13","2023-11-14","2023-11-15","2023-11-16","2023-11-17"],"maxTemp":["9","9","9","8","9"],"minTemp":["","8","6","5","6"],"weatherIcon":[1401,2301,2101,2301,2101]},{"name":"Abilene, Texas","lat":"32.420000000","lng":"-99.680000000","src":"National Weather Service","forecastDate":["2023-11-12","2023-11-13","2023-11-14","2023-11-15","2023-11-16","2023-11-17","2023-11-18"],"maxTemp":["19","16","19","22","23","24","23"],"minTemp":["","11","8","8","11","13","12"],"weatherIcon":[2201,1201,2402,2402,2402,2201,1201]},{"name":"Agana, Guam","lat":"13.462700000","lng":"144.743900000","src":"National Weather Service","forecastDate":["2023-11-13","2023-11-14","2023-11-15","2023-11-16","2023-11-17","2023-11-18","2023-11-19"],"maxTemp":["32","32","31","30","31","31","29"],"minTemp":["26","26","26","26","26","26","26"],"weatherIcon":[1101,2402,2402,1201,1201,901,1201]},{"name":"Akron, Ohio","lat":"40.920000000","lng":"-81.430000000","src":"National Weather Service","forecastDate":["2023-11-12","2023-11-13","2023-11-14","2023-11-15","2023-11-16","2023-11-17","2023-11-18"],"maxTemp":["11","14","12","14","16","14","11"],"minTemp":["","0","1","1","3","8","5"],"weatherIcon":[2402,2402,2402,2402,2402,901,1201]},{"name":"Albany, New York","lat":"42.650000000","lng":"-73.750000000","src":"National Weather Service","forecastDate":["2023-11-12","2023-11-13","2023-11-14","2023-11-15","2023-11-16","2023-11-17","2023-11-18"],"maxTemp":["7","8","8","9","13","15","12"],"minTemp":["","-5","3","-3","1","4","7"],"weatherIcon":[2201,2301,2201,2402,2402,1201,1201]},{"name":"Albuquerque, New Mexico","lat":"35.050000000","lng":"-106.620000000","src":"National Weather Service","forecastDate":["2023-11-12","2023-11-13","2023-11-14","2023-11-15","2023-11-16","2023-11-17","2023-11-18"],"maxTemp":["17","16","16","18","19","18","16"],"minTemp":["","-1","3","3","5","6","4"],"weatherIcon":[2402,2402,2402,2201,2201,1201,1201]}]}