{"cities":[{"name":"Herat","lat":"34.220000000","lng":"62.220000000","src":"Afghanistan Meteorological Authority (AMA)","forecastDate":[],"maxTemp":[],"minTemp":[],"weatherIcon":[]},{"name":"Kabul","lat":"34.550000000","lng":"69.220000000","src":"Afghanistan Meteorological Authority (AMA)","forecastDate":[],"maxTemp":[],"minTemp":[],"weatherIcon":[]},{"name":"Algiers","lat":"36.700000000","lng":"3.220000000","src":"National Meteorological Office","forecastDate":["2024-10-24","2024-10-25","2024-10-26"],"maxTemp":["24","25","25"],"minTemp":["14","15","15"],"weatherIcon":[2301,2202,2202]},{"name":"Annaba","lat":"36.900000000","lng":"7.760000000","src":"National Meteorological Office","forecastDate":["2024-10-24","2024-10-25","2024-10-26"],"maxTemp":["21","25","26"],"minTemp":["13","14","15"],"weatherIcon":[2301,2202,2202]},{"name":"Bechar","lat":"31.610000000","lng":"-2.220000000","src":"National Meteorological Office","forecastDate":["2024-10-24","2024-10-25","2024-10-26"],"maxTemp":["24","28","27"],"minTemp":["14","17","16"],"weatherIcon":[2202,2301,2202]},{"name":"Biskra","lat":"34.860000000","lng":"5.730000000","src":"National Meteorological Office","forecastDate":["2024-10-24","2024-10-25","2024-10-26"],"maxTemp":["27","28","30"],"minTemp":["14","15","16"],"weatherIcon":[2301,2301,2202]},{"name":"Constantine","lat":"36.360000000","lng":"6.610000000","src":"National Meteorological Office","forecastDate":["2024-10-24","2024-10-25","2024-10-26"],"maxTemp":["20","21","22"],"minTemp":["9","10","9"],"weatherIcon":[2301,2202,2202]},{"name":"Djanet","lat":"24.550000000","lng":"9.480000000","src":"National Meteorological Office","forecastDate":["2024-10-24","2024-10-25","2024-10-26"],"maxTemp":["35","32","33"],"minTemp":["21","21","20"],"weatherIcon":[2301,2301,2202]},{"name":"Djelfa","lat":"34.680000000","lng":"3.250000000","src":"National Meteorological Office","forecastDate":["2024-10-24","2024-10-25","2024-10-26"],"maxTemp":["20","20","22"],"minTemp":["6","7","8"],"weatherIcon":[2301,2202,2202]},{"name":"Ghardaia","lat":"32.490000000","lng":"3.680000000","src":"National Meteorological Office","forecastDate":["2024-10-24","2024-10-25","2024-10-26"],"maxTemp":["25","24","25"],"minTemp":["16","15","14"],"weatherIcon":[2202,2202,2202]},{"name":"Oran","lat":"35.710000000","lng":"-0.640000000","src":"National Meteorological Office","forecastDate":["2024-10-24","2024-10-25","2024-10-26"],"maxTemp":["24","25","26"],"minTemp":["15","16","14"],"weatherIcon":[2301,2301,2202]},{"name":"Setif","lat":"36.190000000","lng":"5.410000000","src":"National Meteorological Office","forecastDate":["2024-10-24","2024-10-25","2024-10-26"],"maxTemp":["20","21","22"],"minTemp":["11","10","12"],"weatherIcon":[2301,2202,2202]},{"name":"Tamanrasset","lat":"22.790000000","lng":"5.530000000","src":"National Meteorological Office","forecastDate":["2024-10-24","2024-10-25","2024-10-26"],"maxTemp":["31","33","34"],"minTemp":["20","21","22"],"weatherIcon":[2301,2202,2202]},{"name":"Tlemcen","lat":"34.800000000","lng":"-1.430000000","src":"National Meteorological Office","forecastDate":["2024-10-24","2024-10-25","2024-10-26"],"maxTemp":["25","24","21"],"minTemp":["10","10","11"],"weatherIcon":[2301,2202,2202]},{"name":"Luanda","lat":"-8.780000000","lng":"13.220000000","src":"Instituto Nacional de Hidrometeorolog\u00eda e Geof\u00edsica","forecastDate":[],"maxTemp":[],"minTemp":[],"weatherIcon":[]},{"name":"St. John's Antigua","lat":"17.120000000","lng":"-61.830000000","src":"Antigua and Barbuda Meteorological Services","forecastDate":[],"maxTemp":[],"minTemp":[],"weatherIcon":[]},{"name":"Bariloche","lat":"-41.150000000","lng":"-71.170000000","src":"Servicio Meteorol\u00f3gico Nacional","forecastDate":["2024-10-23","2024-10-24","2024-10-25","2024-10-26","2024-10-27","2024-10-28","2024-10-29"],"maxTemp":["22","13","13","18","20","22","24"],"minTemp":["5","6","2","2","7","7","6"],"weatherIcon":[2302,1502,2202,2201,2202,2202,2202]},{"name":"Buenos Aires","lat":"-34.580000000","lng":"-58.480000000","src":"Servicio Meteorol\u00f3gico Nacional","forecastDate":["2024-10-23","2024-10-24","2024-10-25","2024-10-26","2024-10-27","2024-10-28","2024-10-29"],"maxTemp":["25","21","21","23","25","25","27"],"minTemp":["19","16","14","11","16","12","16"],"weatherIcon":[201,901,2302,2402,2402,2501,2201]},{"name":"Cordoba","lat":"-31.320000000","lng":"-64.220000000","src":"Servicio Meteorol\u00f3gico Nacional","forecastDate":["2024-10-23","2024-10-24","2024-10-25","2024-10-26","2024-10-27","2024-10-28","2024-10-29"],"maxTemp":["26","26","27","29","30","30","31"],"minTemp":["17","19","16","11","16","15","17"],"weatherIcon":[201,2202,2302,2202,2202,2402,2402]},{"name":"El Calafate","lat":"-50.280000000","lng":"-72.050000000","src":"Servicio Meteorol\u00f3gico Nacional","forecastDate":["2024-10-23","2024-10-24","2024-10-25","2024-10-26","2024-10-27","2024-10-28","2024-10-29"],"maxTemp":["15","11","12","15","16","13","14"],"minTemp":["8","5","3","5","5","5","8"],"weatherIcon":[1502,1502,1502,2302,2302,2302,2202]},{"name":"Iguazu","lat":"-25.600000000","lng":"-54.570000000","src":"Servicio Meteorol\u00f3gico Nacional","forecastDate":["2024-10-23","2024-10-24","2024-10-25","2024-10-26","2024-10-27","2024-10-28","2024-10-29"],"maxTemp":["31","30","30","32","29","32","33"],"minTemp":["23","22","16","20","15","17","19"],"weatherIcon":[202,203,2201,2402,1502,2202,2202]},{"name":"Mar del Plata","lat":"-37.933333000","lng":"-57.583333000","src":"Servicio Meteorol\u00f3gico Nacional","forecastDate":["2024-10-23","2024-10-24","2024-10-25","2024-10-26","2024-10-27","2024-10-28","2024-10-29"],"maxTemp":["20","20","20","22","24","25","26"],"minTemp":["9","12","11","7","10","12","15"],"weatherIcon":[203,202,901,2201,2201,2202,2202]},{"name":"Mendoza","lat":"-32.830000000","lng":"-68.780000000","src":"Servicio Meteorol\u00f3gico Nacional","forecastDate":["2024-10-23","2024-10-24","2024-10-25","2024-10-26","2024-10-27","2024-10-28","2024-10-29"],"maxTemp":["22","27","20","25","25","30","31"],"minTemp":["12","13","13","8","10","14","19"],"weatherIcon":[202,2501,2302,2201,2402,2402,2402]},{"name":"Salta","lat":"-24.850000000","lng":"-65.483333000","src":"Servicio Meteorol\u00f3gico Nacional","forecastDate":["2024-10-23","2024-10-24","2024-10-25","2024-10-26","2024-10-27","2024-10-28","2024-10-29"],"maxTemp":["29","25","28","21","26","29","29"],"minTemp":["16","17","13","14","14","18","17"],"weatherIcon":[202,1502,2302,1502,2302,2201,2202]},{"name":"Trelew","lat":"-43.200000000","lng":"-65.266667000","src":"Servicio Meteorol\u00f3gico Nacional","forecastDate":["2024-10-23","2024-10-24","2024-10-25","2024-10-26","2024-10-27","2024-10-28","2024-10-29"],"maxTemp":["24","22","20","23","26","30","28"],"minTemp":["11","8","8","10","14","14","14"],"weatherIcon":[2202,2302,2302,2201,2202,2302,2202]},{"name":"Ushuaia","lat":"-54.800000000","lng":"-68.320000000","src":"Servicio Meteorol\u00f3gico Nacional","forecastDate":["2024-10-23","2024-10-24","2024-10-25","2024-10-26","2024-10-27","2024-10-28","2024-10-29"],"maxTemp":["10","10","6","11","12","10","10"],"minTemp":["4","2","2","1","5","7","5"],"weatherIcon":[1502,1502,801,2601,2601,2302,1502]},{"name":"Dilijan","lat":"40.741944000","lng":"44.863611000","src":"Hydrometeorology and Monitoring Center SNCO","forecastDate":["2024-10-24","2024-10-25","2024-10-26","2024-10-27","2024-10-28"],"maxTemp":["15","15","14","11","11"],"minTemp":["1","5","5","3","3"],"weatherIcon":[2301,1502,1502,2301,2301]},{"name":"Jermuk","lat":"39.832500000","lng":"45.670278000","src":"Hydrometeorology and Monitoring Center SNCO","forecastDate":["2024-10-24","2024-10-25","2024-10-26","2024-10-27","2024-10-28"],"maxTemp":["9","7","6","4","4"],"minTemp":["-2","-1","-2","-2","-2"],"weatherIcon":[2301,2301,1502,1502,2301]},{"name":"Kapan","lat":"39.180000000","lng":"46.380000000","src":"Hydrometeorology and Monitoring Center SNCO","forecastDate":["2024-10-24","2024-10-25","2024-10-26","2024-10-27","2024-10-28"],"maxTemp":["14","16","16","10","10"],"minTemp":["3","3","4","2","2"],"weatherIcon":[2301,2301,2301,1502,2301]},{"name":"Sevan","lat":"40.530000000","lng":"44.930000000","src":"Hydrometeorology and Monitoring Center SNCO","forecastDate":["2024-10-24","2024-10-25","2024-10-26","2024-10-27","2024-10-28"],"maxTemp":["10","8","6","4","4"],"minTemp":["-1","1","-1","-3","-3"],"weatherIcon":[2301,1502,1502,1502,2301]},{"name":"Vanadzor","lat":"40.800000000","lng":"44.470000000","src":"Hydrometeorology and Monitoring Center SNCO","forecastDate":["2024-10-24","2024-10-25","2024-10-26","2024-10-27","2024-10-28"],"maxTemp":["13","12","11","10","10"],"minTemp":["-1","4","4","2","2"],"weatherIcon":[2301,1502,1502,2301,2301]},{"name":"Yerevan","lat":"40.130000000","lng":"44.470000000","src":"Hydrometeorology and Monitoring Center SNCO","forecastDate":["2024-10-24","2024-10-25","2024-10-26","2024-10-27","2024-10-28"],"maxTemp":["15","16","16","15","13"],"minTemp":["3","4","4","3","3"],"weatherIcon":[2301,2301,2301,1502,2301]},{"name":"Adelaide","lat":"-34.960000000","lng":"138.530000000","src":"Bureau of Meteorology","forecastDate":["2024-10-23","2024-10-24","2024-10-25","2024-10-26","2024-10-27","2024-10-28","2024-10-29","2024-10-30"],"maxTemp":["","20","21","26","25","25","26","26"],"minTemp":["","10","9","12","15","11","10","11"],"weatherIcon":[2202,2202,2202,2202,2402,2202,2402,2402]},{"name":"Adventure Bay","lat":"-43.350000000","lng":"147.320000000","src":"Bureau of Meteorology","forecastDate":["2024-10-24","2024-10-25","2024-10-26","2024-10-27","2024-10-28","2024-10-29","2024-10-30"],"maxTemp":["14","13","16","18","15","18","17"],"minTemp":["7","5","4","9","8","9","9"],"weatherIcon":[1101,1101,2301,1101,1101,2301,2202]},{"name":"Albany","lat":"-34.940000000","lng":"117.800000000","src":"Bureau of Meteorology","forecastDate":["2024-10-23","2024-10-24","2024-10-25","2024-10-26","2024-10-27","2024-10-28","2024-10-29","2024-10-30"],"maxTemp":["","24","20","18","19","23","25","24"],"minTemp":["","11","13","13","12","12","14","15"],"weatherIcon":[2202,2402,1101,2301,2301,2202,2402,2402]},{"name":"Albion Park","lat":"-34.560000000","lng":"150.790000000","src":"Bureau of Meteorology","forecastDate":["2024-10-24","2024-10-25","2024-10-26","2024-10-27","2024-10-28","2024-10-29","2024-10-30"],"maxTemp":["21","19","19","24","25","20","23"],"minTemp":["14","9","8","9","12","12","11"],"weatherIcon":[1101,1101,2202,2301,1101,1101,1101]},{"name":"Albury","lat":"-36.070000000","lng":"146.900000000","src":"Bureau of Meteorology","forecastDate":["2024-10-24","2024-10-25","2024-10-26","2024-10-27","2024-10-28","2024-10-29","2024-10-30"],"maxTemp":["20","20","22","25","25","27","27"],"minTemp":["8","6","5","9","10","8","10"],"weatherIcon":[2402,2202,2402,2202,2202,2402,2402]},{"name":"Albury / Wodonga","lat":"-36.070000000","lng":"146.960000000","src":"Bureau of Meteorology","forecastDate":["2024-10-24","2024-10-25","2024-10-26","2024-10-27","2024-10-28","2024-10-29","2024-10-30"],"maxTemp":["20","20","22","25","25","26","27"],"minTemp":["7","5","4","9","9","7","9"],"weatherIcon":[2402,2202,2402,2202,2202,2402,2402]},{"name":"Alice Springs","lat":"-23.800000000","lng":"133.890000000","src":"Bureau of Meteorology","forecastDate":["2024-10-23","2024-10-24","2024-10-25","2024-10-26","2024-10-27","2024-10-28","2024-10-29","2024-10-30"],"maxTemp":["","33","33","37","35","36","36","35"],"minTemp":["","19","16","14","19","19","18","18"],"weatherIcon":[2502,2202,2402,2402,2202,2202,2402,2202]},{"name":"Alyangula","lat":"-13.980000000","lng":"136.430000000","src":"Bureau of Meteorology","forecastDate":["2024-10-23","2024-10-24","2024-10-25","2024-10-26","2024-10-27","2024-10-28","2024-10-29","2024-10-30"],"maxTemp":["","35","35","35","36","36","36","35"],"minTemp":["","23","24","23","23","23","24","24"],"weatherIcon":[2502,2202,1101,2402,2202,1101,1101,1101]},{"name":"Ararat","lat":"-37.280000000","lng":"142.980000000","src":"Bureau of Meteorology","forecastDate":["2024-10-24","2024-10-25","2024-10-26","2024-10-27","2024-10-28","2024-10-29","2024-10-30"],"maxTemp":["16","17","21","24","19","22","22"],"minTemp":["6","6","3","10","9","6","7"],"weatherIcon":[1101,2301,2402,2202,2202,2202,2202]},{"name":"Argyle","lat":"-33.520000000","lng":"115.790000000","src":"Bureau of Meteorology","forecastDate":[],"maxTemp":[],"minTemp":[],"weatherIcon":[]},{"name":"Armidale","lat":"-30.520000000","lng":"151.670000000","src":"Bureau of Meteorology","forecastDate":["2024-10-24","2024-10-25","2024-10-26","2024-10-27","2024-10-28","2024-10-29","2024-10-30"],"maxTemp":["25","19","20","21","23","23","22"],"minTemp":["10","7","4","6","7","7","7"],"weatherIcon":[203,2202,2202,1101,1101,2202,2202]},{"name":"Augusta","lat":"-34.313300000","lng":"115.167500000","src":"Bureau of Meteorology","forecastDate":["2024-10-23","2024-10-24","2024-10-25","2024-10-26","2024-10-27","2024-10-28","2024-10-29","2024-10-30"],"maxTemp":["","22","23","22","24","27","30","30"],"minTemp":["","11","12","12","11","13","16","18"],"weatherIcon":[2502,2402,2202,2202,2202,2402,2402,2402]},{"name":"Avalon","lat":"-38.030000000","lng":"144.480000000","src":"Bureau of Meteorology","forecastDate":["2024-10-24","2024-10-25","2024-10-26","2024-10-27","2024-10-28","2024-10-29","2024-10-30"],"maxTemp":["18","17","20","24","19","20","20"],"minTemp":["8","7","5","11","10","9","10"],"weatherIcon":[1101,2202,2402,1101,1101,1101,2202]},{"name":"Ayr / Home Hill","lat":"-19.620000000","lng":"147.380000000","src":"Bureau of Meteorology","forecastDate":["2024-10-23","2024-10-24","2024-10-25","2024-10-26","2024-10-27","2024-10-28","2024-10-29","2024-10-30"],"maxTemp":["","32","32","31","31","31","32","31"],"minTemp":["","20","20","19","21","21","20","19"],"weatherIcon":[2502,2402,2402,2202,2202,2202,2202,2202]},{"name":"Bairnsdale","lat":"-37.880000000","lng":"147.570000000","src":"Bureau of Meteorology","forecastDate":["2024-10-24","2024-10-25","2024-10-26","2024-10-27","2024-10-28","2024-10-29","2024-10-30"],"maxTemp":["17","16","18","22","19","20","20"],"minTemp":["9","7","5","7","10","7","8"],"weatherIcon":[2202,1101,2402,1101,1101,1101,2202]},{"name":"Ballarat","lat":"-37.510000000","lng":"143.790000000","src":"Bureau of Meteorology","forecastDate":["2024-10-24","2024-10-25","2024-10-26","2024-10-27","2024-10-28","2024-10-29","2024-10-30"],"maxTemp":["13","14","19","21","17","19","20"],"minTemp":["5","4","2","9","7","5","7"],"weatherIcon":[1101,2301,2202,1101,1101,2202,2202]},{"name":"Ballina","lat":"-28.840000000","lng":"153.560000000","src":"Bureau of Meteorology","forecastDate":["2024-10-24","2024-10-25","2024-10-26","2024-10-27","2024-10-28","2024-10-29","2024-10-30"],"maxTemp":["29","23","22","24","26","23","25"],"minTemp":["17","16","15","15","15","15","15"],"weatherIcon":[203,1101,1101,1101,1101,1101,1101]},{"name":"Batemans Bay","lat":"-35.710000000","lng":"150.180000000","src":"Bureau of Meteorology","forecastDate":["2024-10-24","2024-10-25","2024-10-26","2024-10-27","2024-10-28","2024-10-29","2024-10-30"],"maxTemp":["19","20","19","25","23","21","22"],"minTemp":["11","8","5","7","10","9","10"],"weatherIcon":[1101,1101,2402,1101,1101,1101,1101]},{"name":"Bathurst","lat":"-33.430000000","lng":"149.560000000","src":"Bureau of Meteorology","forecastDate":["2024-10-24","2024-10-25","2024-10-26","2024-10-27","2024-10-28","2024-10-29","2024-10-30"],"maxTemp":["22","18","19","22","25","24","25"],"minTemp":["8","3","2","5","4","6","5"],"weatherIcon":[1101,2402,2202,2301,2202,2202,2402]},{"name":"Beechworth","lat":"-36.320000000","lng":"146.680000000","src":"Bureau of Meteorology","forecastDate":["2024-10-24","2024-10-25","2024-10-26","2024-10-27","2024-10-28","2024-10-29","2024-10-30"],"maxTemp":["18","18","20","24","23","25","25"],"minTemp":["5","3","1","8","8","5","7"],"weatherIcon":[2202,2202,2402,2202,2202,2402,2402]},{"name":"Bega","lat":"-36.680000000","lng":"149.830000000","src":"Bureau of Meteorology","forecastDate":["2024-10-24","2024-10-25","2024-10-26","2024-10-27","2024-10-28","2024-10-29","2024-10-30"],"maxTemp":["21","19","19","24","23","21","22"],"minTemp":["9","7","3","5","8","6","7"],"weatherIcon":[1101,2202,2202,1101,1101,2202,2202]},{"name":"Bellerive","lat":"-42.870000000","lng":"147.370000000","src":"Bureau of Meteorology","forecastDate":["2024-10-24","2024-10-25","2024-10-26","2024-10-27","2024-10-28","2024-10-29","2024-10-30"],"maxTemp":["15","14","18","21","17","20","19"],"minTemp":["8","6","5","10","9","9","10"],"weatherIcon":[1101,1101,2301,1101,1101,2202,2202]},{"name":"Ben Lomond","lat":"-41.540000000","lng":"147.670000000","src":"Bureau of Meteorology","forecastDate":["2024-10-24","2024-10-25","2024-10-26","2024-10-27","2024-10-28","2024-10-29","2024-10-30"],"maxTemp":["5","5","8","10","8","12","12"],"minTemp":["-3","-5","-4","0","0","0","2"],"weatherIcon":[601,2601,2202,601,601,2202,2202]},{"name":"Benalla","lat":"-36.550000000","lng":"146.000000000","src":"Bureau of Meteorology","forecastDate":["2024-10-24","2024-10-25","2024-10-26","2024-10-27","2024-10-28","2024-10-29","2024-10-30"],"maxTemp":["19","18","21","25","23","25","25"],"minTemp":["7","5","3","9","9","7","9"],"weatherIcon":[2202,2202,2402,2202,2202,2402,2402]},{"name":"Bendigo","lat":"-36.740000000","lng":"144.320000000","src":"Bureau of Meteorology","forecastDate":["2024-10-24","2024-10-25","2024-10-26","2024-10-27","2024-10-28","2024-10-29","2024-10-30"],"maxTemp":["17","18","21","25","22","24","24"],"minTemp":["6","6","4","10","9","7","8"],"weatherIcon":[2202,2202,2402,2202,2202,2202,2202]},{"name":"Bicheno","lat":"-41.870000000","lng":"148.300000000","src":"Bureau of Meteorology","forecastDate":["2024-10-24","2024-10-25","2024-10-26","2024-10-27","2024-10-28","2024-10-29","2024-10-30"],"maxTemp":["17","13","17","20","17","19","19"],"minTemp":["9","6","6","9","9","8","10"],"weatherIcon":[1101,1101,2202,1101,1101,2202,2202]},{"name":"Bondi","lat":"-33.880000000","lng":"151.270000000","src":"Bureau of Meteorology","forecastDate":["2024-10-24","2024-10-25","2024-10-26","2024-10-27","2024-10-28","2024-10-29","2024-10-30"],"maxTemp":["20","19","17","22","23","19","20"],"minTemp":["18","14","14","13","15","16","15"],"weatherIcon":[1101,1101,2402,2202,1101,1101,1101]},{"name":"Borroloola","lat":"-16.080000000","lng":"136.300000000","src":"Bureau of Meteorology","forecastDate":["2024-10-23","2024-10-24","2024-10-25","2024-10-26","2024-10-27","2024-10-28","2024-10-29","2024-10-30"],"maxTemp":["","39","39","41","38","39","40","39"],"minTemp":["","26","25","23","22","23","23","24"],"weatherIcon":[2202,2202,2202,2402,2202,2202,2202,2202]},{"name":"Bothwell","lat":"-42.380000000","lng":"147.000000000","src":"Bureau of Meteorology","forecastDate":["2024-10-24","2024-10-25","2024-10-26","2024-10-27","2024-10-28","2024-10-29","2024-10-30"],"maxTemp":["12","12","17","18","14","17","17"],"minTemp":["3","1","-2","5","4","5","5"],"weatherIcon":[1101,2301,2301,1101,1101,2301,2202]},{"name":"Bourke","lat":"-30.090000000","lng":"145.940000000","src":"Bureau of Meteorology","forecastDate":["2024-10-24","2024-10-25","2024-10-26","2024-10-27","2024-10-28","2024-10-29","2024-10-30"],"maxTemp":["30","27","28","31","34","33","33"],"minTemp":["20","12","11","15","16","15","16"],"weatherIcon":[2601,2402,2402,2202,2402,2402,2402]},{"name":"Bowen","lat":"-20.020000000","lng":"148.220000000","src":"Bureau of Meteorology","forecastDate":["2024-10-23","2024-10-24","2024-10-25","2024-10-26","2024-10-27","2024-10-28","2024-10-29","2024-10-30"],"maxTemp":["","31","31","31","31","31","31","31"],"minTemp":["","21","21","21","22","21","20","20"],"weatherIcon":[2502,2202,2402,2202,2402,2202,2202,2202]},{"name":"Bowral","lat":"-34.490000000","lng":"150.400000000","src":"Bureau of Meteorology","forecastDate":["2024-10-24","2024-10-25","2024-10-26","2024-10-27","2024-10-28","2024-10-29","2024-10-30"],"maxTemp":["19","17","16","21","23","18","21"],"minTemp":["11","6","4","6","9","9","7"],"weatherIcon":[1101,1101,2202,2301,1101,1101,1101]},{"name":"Bridgetown","lat":"-33.960000000","lng":"116.140000000","src":"Bureau of Meteorology","forecastDate":["2024-10-23","2024-10-24","2024-10-25","2024-10-26","2024-10-27","2024-10-28","2024-10-29","2024-10-30"],"maxTemp":["","26","23","21","24","30","33","34"],"minTemp":["","7","9","9","6","9","13","15"],"weatherIcon":[2202,2402,2202,2301,2402,2402,2402,2402]},{"name":"Bridport","lat":"-41.000000000","lng":"147.390000000","src":"Bureau of Meteorology","forecastDate":["2024-10-24","2024-10-25","2024-10-26","2024-10-27","2024-10-28","2024-10-29","2024-10-30"],"maxTemp":["15","16","15","18","17","19","18"],"minTemp":["8","5","4","8","8","7","7"],"weatherIcon":[1101,2202,2202,1101,1101,2202,2202]},{"name":"Brisbane","lat":"-27.480800000","lng":"153.038900000","src":"Bureau of Meteorology","forecastDate":["2024-10-23","2024-10-24","2024-10-25","2024-10-26","2024-10-27","2024-10-28","2024-10-29","2024-10-30"],"maxTemp":["","32","30","25","25","27","27","27"],"minTemp":["","19","20","17","18","18","17","18"],"weatherIcon":[2202,1101,2402,1101,1101,1101,1101,2202]},{"name":"Brisbane Airport","lat":"-27.391700000","lng":"153.129200000","src":"Bureau of Meteorology","forecastDate":["2024-10-23","2024-10-24","2024-10-25","2024-10-26","2024-10-27","2024-10-28","2024-10-29","2024-10-30"],"maxTemp":["","29","29","24","25","26","26","25"],"minTemp":["","18","19","17","17","17","16","17"],"weatherIcon":[2202,1101,1101,1101,1101,1101,1101,2202]},{"name":"Brisbane Bayside","lat":"-27.490000000","lng":"153.200000000","src":"Bureau of Meteorology","forecastDate":["2024-10-23","2024-10-24","2024-10-25","2024-10-26","2024-10-27","2024-10-28","2024-10-29","2024-10-30"],"maxTemp":["","29","28","24","25","25","26","25"],"minTemp":["","19","19","16","17","17","16","17"],"weatherIcon":[2202,1101,1101,1101,1101,1101,1101,2202]},{"name":"Broken Hill","lat":"-31.980000000","lng":"141.470000000","src":"Bureau of Meteorology","forecastDate":["2024-10-23","2024-10-24","2024-10-25","2024-10-26","2024-10-27","2024-10-28","2024-10-29","2024-10-30"],"maxTemp":["","22","22","26","30","29","28","29"],"minTemp":["","11","8","10","15","14","13","14"],"weatherIcon":[2202,2402,2402,2202,2202,2402,2402,2402]},{"name":"Broome","lat":"-17.950000000","lng":"122.230000000","src":"Bureau of Meteorology","forecastDate":["2024-10-23","2024-10-24","2024-10-25","2024-10-26","2024-10-27","2024-10-28","2024-10-29","2024-10-30"],"maxTemp":["","35","35","35","35","36","35","36"],"minTemp":["","27","27","27","27","27","26","27"],"weatherIcon":[2502,2202,2402,2402,2202,2202,2202,2202]},{"name":"Bunbury","lat":"-33.360000000","lng":"115.640000000","src":"Bureau of Meteorology","forecastDate":["2024-10-23","2024-10-24","2024-10-25","2024-10-26","2024-10-27","2024-10-28","2024-10-29","2024-10-30"],"maxTemp":["","23","24","23","25","28","31","32"],"minTemp":["","10","11","10","9","12","16","18"],"weatherIcon":[2502,2402,2202,2202,2402,2402,2402,2402]},{"name":"Bundaberg","lat":"-24.890000000","lng":"152.320000000","src":"Bureau of Meteorology","forecastDate":["2024-10-23","2024-10-24","2024-10-25","2024-10-26","2024-10-27","2024-10-28","2024-10-29","2024-10-30"],"maxTemp":["","31","32","28","28","28","30","28"],"minTemp":["","20","19","18","19","19","17","17"],"weatherIcon":[2502,1101,1101,2202,2202,1101,1101,2202]},{"name":"Busselton","lat":"-33.660000000","lng":"115.340000000","src":"Bureau of Meteorology","forecastDate":["2024-10-23","2024-10-24","2024-10-25","2024-10-26","2024-10-27","2024-10-28","2024-10-29","2024-10-30"],"maxTemp":["","24","23","22","25","29","32","32"],"minTemp":["","8","10","10","8","11","15","17"],"weatherIcon":[2502,2402,2202,2301,2402,2402,2402,2402]},{"name":"Cabramurra","lat":"-35.930000000","lng":"148.380000000","src":"Bureau of Meteorology","forecastDate":["2024-10-24","2024-10-25","2024-10-26","2024-10-27","2024-10-28","2024-10-29","2024-10-30"],"maxTemp":["12","9","12","13","16","16","18"],"minTemp":["4","0","-1","4","5","3","5"],"weatherIcon":[2402,2202,2402,1101,1101,2202,2202]},{"name":"Cairns","lat":"-16.870000000","lng":"145.750000000","src":"Bureau of Meteorology","forecastDate":["2024-10-23","2024-10-24","2024-10-25","2024-10-26","2024-10-27","2024-10-28","2024-10-29","2024-10-30"],"maxTemp":["","33","32","32","32","32","32","32"],"minTemp":["","22","22","21","23","23","24","23"],"weatherIcon":[2202,2202,2402,2202,1101,1101,2202,2202]},{"name":"Campbell Town [NSW]","lat":"-34.060000000","lng":"150.770000000","src":"Bureau of Meteorology","forecastDate":["2024-10-24","2024-10-25","2024-10-26","2024-10-27","2024-10-28","2024-10-29","2024-10-30"],"maxTemp":["24","22","20","25","28","22","25"],"minTemp":["13","9","9","8","10","13","9"],"weatherIcon":[1101,2202,2202,2301,1101,1101,1101]},{"name":"Campbell Town [TAS]","lat":"-41.930000000","lng":"147.490000000","src":"Bureau of Meteorology","forecastDate":["2024-10-24","2024-10-25","2024-10-26","2024-10-27","2024-10-28","2024-10-29","2024-10-30"],"maxTemp":["15","13","17","19","17","22","20"],"minTemp":["4","1","-1","5","5","3","3"],"weatherIcon":[1101,2202,2301,1101,1101,2202,2202]},{"name":"Canberra","lat":"-35.308889000","lng":"149.200278000","src":"Bureau of Meteorology","forecastDate":["2024-10-24","2024-10-25","2024-10-26","2024-10-27","2024-10-28","2024-10-29","2024-10-30"],"maxTemp":["21","19","20","23","26","23","26"],"minTemp":["8","4","2","5","6","6","7"],"weatherIcon":[1101,2202,2202,2301,1101,2202,2202]},{"name":"Canterbury","lat":"-33.910000000","lng":"151.110000000","src":"Bureau of Meteorology","forecastDate":["2024-10-24","2024-10-25","2024-10-26","2024-10-27","2024-10-28","2024-10-29","2024-10-30"],"maxTemp":["21","20","18","23","25","20","22"],"minTemp":["15","11","11","10","12","14","12"],"weatherIcon":[1101,1101,2202,2202,1101,1101,1101]},{"name":"Cape Byron","lat":"-28.640000000","lng":"153.630000000","src":"Bureau of Meteorology","forecastDate":["2024-10-24","2024-10-25","2024-10-26","2024-10-27","2024-10-28","2024-10-29","2024-10-30"],"maxTemp":["27","23","21","23","24","23","23"],"minTemp":["19","18","16","17","17","17","17"],"weatherIcon":[203,1101,1101,1101,1101,1101,1101]},{"name":"Cape Otway","lat":"-38.860000000","lng":"143.510000000","src":"Bureau of Meteorology","forecastDate":["2024-10-24","2024-10-25","2024-10-26","2024-10-27","2024-10-28","2024-10-29","2024-10-30"],"maxTemp":["15","14","17","18","16","16","16"],"minTemp":["10","10","8","13","11","11","12"],"weatherIcon":[1101,2202,2202,1101,1101,1101,2301]},{"name":"Carnarvon","lat":"-24.880000000","lng":"113.670000000","src":"Bureau of Meteorology","forecastDate":["2024-10-23","2024-10-24","2024-10-25","2024-10-26","2024-10-27","2024-10-28","2024-10-29","2024-10-30"],"maxTemp":["","31","27","28","32","35","31","29"],"minTemp":["","19","19","17","18","22","21","19"],"weatherIcon":[2502,2402,2402,2402,2402,2402,2402,2402]},{"name":"Casterton","lat":"-37.590000000","lng":"141.410000000","src":"Bureau of Meteorology","forecastDate":["2024-10-24","2024-10-25","2024-10-26","2024-10-27","2024-10-28","2024-10-29","2024-10-30"],"maxTemp":["15","17","22","23","19","21","21"],"minTemp":["6","5","4","9","7","5","7"],"weatherIcon":[1101,2301,2202,1101,2202,2202,2202]},{"name":"Castlemaine","lat":"-37.080000000","lng":"144.240000000","src":"Bureau of Meteorology","forecastDate":["2024-10-24","2024-10-25","2024-10-26","2024-10-27","2024-10-28","2024-10-29","2024-10-30"],"maxTemp":["16","16","20","23","20","22","22"],"minTemp":["6","6","3","10","9","7","8"],"weatherIcon":[2202,2202,2202,2202,2202,2202,2202]},{"name":"Ceduna","lat":"-32.130000000","lng":"133.710000000","src":"Bureau of Meteorology","forecastDate":["2024-10-23","2024-10-24","2024-10-25","2024-10-26","2024-10-27","2024-10-28","2024-10-29","2024-10-30"],"maxTemp":["","21","27","29","24","23","26","28"],"minTemp":["","10","6","13","13","9","9","11"],"weatherIcon":[2202,2202,2402,1101,2402,2202,2402,2402]},{"name":"Cerberus","lat":"-38.360000000","lng":"145.180000000","src":"Bureau of Meteorology","forecastDate":["2024-10-24","2024-10-25","2024-10-26","2024-10-27","2024-10-28","2024-10-29","2024-10-30"],"maxTemp":["16","16","18","21","17","17","18"],"minTemp":["9","9","7","11","11","10","11"],"weatherIcon":[1101,2202,2402,1101,1101,2202,2202]},{"name":"Cessnock","lat":"-32.790000000","lng":"151.340000000","src":"Bureau of Meteorology","forecastDate":["2024-10-24","2024-10-25","2024-10-26","2024-10-27","2024-10-28","2024-10-29","2024-10-30"],"maxTemp":["25","23","20","25","28","22","24"],"minTemp":["14","10","9","8","10","12","10"],"weatherIcon":[203,1101,2202,2202,1101,1101,1101]},{"name":"Charleville","lat":"-26.410000000","lng":"146.260000000","src":"Bureau of Meteorology","forecastDate":["2024-10-23","2024-10-24","2024-10-25","2024-10-26","2024-10-27","2024-10-28","2024-10-29","2024-10-30"],"maxTemp":["","37","30","33","33","33","34","34"],"minTemp":["","20","15","12","16","16","15","15"],"weatherIcon":[2502,2202,2402,2402,1101,2202,2402,2402]},{"name":"Charters Towers","lat":"-20.040000000","lng":"146.270000000","src":"Bureau of Meteorology","forecastDate":["2024-10-23","2024-10-24","2024-10-25","2024-10-26","2024-10-27","2024-10-28","2024-10-29","2024-10-30"],"maxTemp":["","36","37","35","34","35","35","35"],"minTemp":["","19","19","18","19","19","18","17"],"weatherIcon":[2502,2202,2402,2202,2402,2402,2402,2202]},{"name":"Christmas Island","lat":"-10.450000000","lng":"105.690000000","src":"Bureau of Meteorology","forecastDate":["2024-10-23","2024-10-24","2024-10-25","2024-10-26"],"maxTemp":["","27","28","28"],"minTemp":["","23","",""],"weatherIcon":[1201,2502,2202,1201]},{"name":"Clare","lat":"-33.840000000","lng":"138.610000000","src":"Bureau of Meteorology","forecastDate":["2024-10-23","2024-10-24","2024-10-25","2024-10-26","2024-10-27","2024-10-28","2024-10-29","2024-10-30"],"maxTemp":["","18","20","25","27","25","27","27"],"minTemp":["","7","6","11","12","9","8","9"],"weatherIcon":[2202,2202,2202,2202,2202,2402,2402,2402]},{"name":"Clermont","lat":"-22.830000000","lng":"147.640000000","src":"Bureau of Meteorology","forecastDate":["2024-10-23","2024-10-24","2024-10-25","2024-10-26","2024-10-27","2024-10-28","2024-10-29","2024-10-30"],"maxTemp":["","36","35","35","35","31","33","34"],"minTemp":["","20","19","17","18","18","16","17"],"weatherIcon":[2502,203,2402,2402,2402,2202,2402,2402]},{"name":"Cobar","lat":"-31.490000000","lng":"145.830000000","src":"Bureau of Meteorology","forecastDate":["2024-10-24","2024-10-25","2024-10-26","2024-10-27","2024-10-28","2024-10-29","2024-10-30"],"maxTemp":["25","23","26","29","31","30","31"],"minTemp":["16","10","10","15","15","15","15"],"weatherIcon":[2202,2402,2402,2202,2402,2402,2402]},{"name":"Cocos Island","lat":"-12.160000000","lng":"96.870000000","src":"Bureau of Meteorology","forecastDate":["2024-10-23","2024-10-24","2024-10-25","2024-10-26"],"maxTemp":["","29","29","29"],"minTemp":["","25","",""],"weatherIcon":[1201,1201,2502,2202]},{"name":"Coffs Harbour","lat":"-30.310000000","lng":"153.120000000","src":"Bureau of Meteorology","forecastDate":["2024-10-24","2024-10-25","2024-10-26","2024-10-27","2024-10-28","2024-10-29","2024-10-30"],"maxTemp":["28","23","21","24","26","22","25"],"minTemp":["16","15","13","13","14","15","14"],"weatherIcon":[203,1101,1101,1101,1101,1101,1101]},{"name":"Colac","lat":"-38.340000000","lng":"143.590000000","src":"Bureau of Meteorology","forecastDate":["2024-10-24","2024-10-25","2024-10-26","2024-10-27","2024-10-28","2024-10-29","2024-10-30"],"maxTemp":["15","16","20","22","17","20","19"],"minTemp":["7","6","4","10","9","7","9"],"weatherIcon":[1101,2202,2202,1101,1101,2202,2301]},{"name":"Coles Bay","lat":"-42.120000000","lng":"148.280000000","src":"Bureau of Meteorology","forecastDate":["2024-10-24","2024-10-25","2024-10-26","2024-10-27","2024-10-28","2024-10-29","2024-10-30"],"maxTemp":["18","14","17","20","18","20","19"],"minTemp":["9","6","7","9","9","9","9"],"weatherIcon":[1101,1101,2202,1101,1101,2202,2202]},{"name":"Collie","lat":"-33.360000000","lng":"116.150000000","src":"Bureau of Meteorology","forecastDate":["2024-10-23","2024-10-24","2024-10-25","2024-10-26","2024-10-27","2024-10-28","2024-10-29","2024-10-30"],"maxTemp":["","27","25","23","25","31","35","35"],"minTemp":["","7","9","8","6","9","13","17"],"weatherIcon":[2502,2402,2202,2202,2402,2402,2402,2402]},{"name":"Combienbar","lat":"-37.340000000","lng":"149.020000000","src":"Bureau of Meteorology","forecastDate":["2024-10-24","2024-10-25","2024-10-26","2024-10-27","2024-10-28","2024-10-29","2024-10-30"],"maxTemp":["16","12","17","20","17","18","20"],"minTemp":["6","2","-2","2","5","2","4"],"weatherIcon":[1101,2202,2402,1101,1101,1101,2202]},{"name":"Coober Pedy","lat":"-29.010000000","lng":"134.760000000","src":"Bureau of Meteorology","forecastDate":["2024-10-23","2024-10-24","2024-10-25","2024-10-26","2024-10-27","2024-10-28","2024-10-29","2024-10-30"],"maxTemp":["","28","30","33","34","35","36","36"],"minTemp":["","13","12","17","19","18","19","21"],"weatherIcon":[2502,2402,2402,2202,2202,2402,2402,2202]},{"name":"Cooma","lat":"-36.230000000","lng":"149.120000000","src":"Bureau of Meteorology","forecastDate":["2024-10-24","2024-10-25","2024-10-26","2024-10-27","2024-10-28","2024-10-29","2024-10-30"],"maxTemp":["19","15","18","21","22","20","23"],"minTemp":["4","2","-3","2","4","2","4"],"weatherIcon":[1101,2202,2402,1101,1101,2202,2202]},{"name":"Coonawarra","lat":"-37.290000000","lng":"140.830000000","src":"Bureau of Meteorology","forecastDate":["2024-10-23","2024-10-24","2024-10-25","2024-10-26","2024-10-27","2024-10-28","2024-10-29","2024-10-30"],"maxTemp":["","16","18","22","24","20","22","21"],"minTemp":["","6","6","5","9","8","5","8"],"weatherIcon":[1101,1101,2301,2202,2202,2202,2202,2202]},{"name":"Corryong","lat":"-36.180000000","lng":"147.890000000","src":"Bureau of Meteorology","forecastDate":["2024-10-24","2024-10-25","2024-10-26","2024-10-27","2024-10-28","2024-10-29","2024-10-30"],"maxTemp":["21","19","21","23","26","25","27"],"minTemp":["6","2","1","5","6","5","6"],"weatherIcon":[2402,2202,2402,1101,2202,2402,2402]},{"name":"Cradle Valley","lat":"-41.580000000","lng":"145.940000000","src":"Bureau of Meteorology","forecastDate":["2024-10-24","2024-10-25","2024-10-26","2024-10-27","2024-10-28","2024-10-29","2024-10-30"],"maxTemp":["6","7","10","11","9","12","12"],"minTemp":["1","-1","-2","3","2","3","4"],"weatherIcon":[601,2301,1101,1101,1101,2301,2202]},{"name":"Cranbourne","lat":"-38.130000000","lng":"145.260000000","src":"Bureau of Meteorology","forecastDate":["2024-10-24","2024-10-25","2024-10-26","2024-10-27","2024-10-28","2024-10-29","2024-10-30"],"maxTemp":["15","15","19","22","17","18","19"],"minTemp":["8","7","3","10","9","8","9"],"weatherIcon":[1101,2202,2402,1101,1101,2202,2202]},{"name":"Cressy","lat":"-41.730000000","lng":"147.080000000","src":"Bureau of Meteorology","forecastDate":["2024-10-24","2024-10-25","2024-10-26","2024-10-27","2024-10-28","2024-10-29","2024-10-30"],"maxTemp":["15","15","17","19","18","22","21"],"minTemp":["5","2","1","6","6","5","5"],"weatherIcon":[1101,2202,2301,1101,1101,2202,2202]},{"name":"Currie","lat":"-39.930000000","lng":"143.850000000","src":"Bureau of Meteorology","forecastDate":["2024-10-24","2024-10-25","2024-10-26","2024-10-27","2024-10-28","2024-10-29","2024-10-30"],"maxTemp":["14","14","17","18","15","17","16"],"minTemp":["9","8","8","11","10","10","11"],"weatherIcon":[1101,2601,2202,1101,1101,2301,2301]},{"name":"Cygnet","lat":"-43.150000000","lng":"147.070000000","src":"Bureau of Meteorology","forecastDate":["2024-10-24","2024-10-25","2024-10-26","2024-10-27","2024-10-28","2024-10-29","2024-10-30"],"maxTemp":["14","13","17","19","16","19","17"],"minTemp":["7","4","2","7","7","8","8"],"weatherIcon":[1101,1101,2301,1101,1101,2301,2202]},{"name":"Dalby","lat":"-27.170000000","lng":"151.270000000","src":"Bureau of Meteorology","forecastDate":["2024-10-23","2024-10-24","2024-10-25","2024-10-26","2024-10-27","2024-10-28","2024-10-29","2024-10-30"],"maxTemp":["","35","30","30","29","27","30","29"],"minTemp":["","15","15","11","14","14","13","14"],"weatherIcon":[2502,1101,2402,2402,1101,1101,2202,2202]},{"name":"Dalwallinu","lat":"-30.270000000","lng":"116.660000000","src":"Bureau of Meteorology","forecastDate":["2024-10-23","2024-10-24","2024-10-25","2024-10-26","2024-10-27","2024-10-28","2024-10-29","2024-10-30"],"maxTemp":["","35","34","30","32","35","38","39"],"minTemp":["","11","13","12","12","14","19","21"],"weatherIcon":[2502,2402,2202,2202,2402,2402,2202,2202]},{"name":"Dartmouth","lat":"-36.540000000","lng":"147.500000000","src":"Bureau of Meteorology","forecastDate":[],"maxTemp":[],"minTemp":[],"weatherIcon":[]},{"name":"Darwin","lat":"-12.420000000","lng":"130.890000000","src":"Bureau of Meteorology","forecastDate":["2024-10-23","2024-10-24","2024-10-25","2024-10-26","2024-10-27","2024-10-28","2024-10-29","2024-10-30"],"maxTemp":["","35","35","36","35","35","37","36"],"minTemp":["","26","26","26","27","27","27","27"],"weatherIcon":[2202,2402,1101,1101,1101,1101,1101,1101]},{"name":"Darwin Rural","lat":"-12.420000000","lng":"130.890000000","src":"Bureau of Meteorology","forecastDate":["2024-10-23","2024-10-24","2024-10-25","2024-10-26","2024-10-27","2024-10-28","2024-10-29","2024-10-30"],"maxTemp":["","35","35","36","35","35","37","36"],"minTemp":["","26","26","26","27","27","27","27"],"weatherIcon":[2202,2402,1101,1101,1101,1101,1101,1101]},{"name":"Deloraine","lat":"-41.520000000","lng":"146.650000000","src":"Bureau of Meteorology","forecastDate":["2024-10-24","2024-10-25","2024-10-26","2024-10-27","2024-10-28","2024-10-29","2024-10-30"],"maxTemp":["13","15","15","17","16","20","19"],"minTemp":["5","2","1","6","5","5","5"],"weatherIcon":[1101,2202,2301,1101,1101,2202,2202]},{"name":"Denham","lat":"-25.930000000","lng":"113.530000000","src":"Bureau of Meteorology","forecastDate":["2024-10-23","2024-10-24","2024-10-25","2024-10-26","2024-10-27","2024-10-28","2024-10-29","2024-10-30"],"maxTemp":["","32","27","27","32","35","32","30"],"minTemp":["","17","17","16","17","20","21","18"],"weatherIcon":[2601,2402,2601,2601,2601,2402,2402,2402]},{"name":"Deniliquin","lat":"-35.550000000","lng":"144.950000000","src":"Bureau of Meteorology","forecastDate":["2024-10-24","2024-10-25","2024-10-26","2024-10-27","2024-10-28","2024-10-29","2024-10-30"],"maxTemp":["21","20","24","29","26","27","28"],"minTemp":["8","6","5","11","10","8","9"],"weatherIcon":[2202,2202,2402,2202,2402,2402,2402]},{"name":"Derby","lat":"-17.370000000","lng":"123.660000000","src":"Bureau of Meteorology","forecastDate":["2024-10-23","2024-10-24","2024-10-25","2024-10-26","2024-10-27","2024-10-28","2024-10-29","2024-10-30"],"maxTemp":["","40","38","39","38","39","39","39"],"minTemp":["","27","27","27","27","27","27","27"],"weatherIcon":[2502,2202,2202,2202,2202,2202,2202,2202]},{"name":"Devonport","lat":"-41.170000000","lng":"146.430000000","src":"Bureau of Meteorology","forecastDate":["2024-10-24","2024-10-25","2024-10-26","2024-10-27","2024-10-28","2024-10-29","2024-10-30"],"maxTemp":["15","16","15","17","17","19","18"],"minTemp":["8","6","6","9","9","8","9"],"weatherIcon":[1101,2202,2301,1101,2202,2202,2202]},{"name":"Dover","lat":"-43.320000000","lng":"147.010000000","src":"Bureau of Meteorology","forecastDate":["2024-10-24","2024-10-25","2024-10-26","2024-10-27","2024-10-28","2024-10-29","2024-10-30"],"maxTemp":["14","13","17","19","15","18","16"],"minTemp":["6","4","2","7","7","8","8"],"weatherIcon":[1101,1101,2301,1101,1101,2301,2301]},{"name":"Dubbo","lat":"-32.220000000","lng":"148.580000000","src":"Bureau of Meteorology","forecastDate":["2024-10-24","2024-10-25","2024-10-26","2024-10-27","2024-10-28","2024-10-29","2024-10-30"],"maxTemp":["26","22","24","27","30","29","29"],"minTemp":["13","7","5","9","9","10","10"],"weatherIcon":[1101,2402,2402,2202,2402,2202,2402]},{"name":"Echuca","lat":"-36.170000000","lng":"144.760000000","src":"Bureau of Meteorology","forecastDate":["2024-10-24","2024-10-25","2024-10-26","2024-10-27","2024-10-28","2024-10-29","2024-10-30"],"maxTemp":["19","19","23","27","24","25","26"],"minTemp":["8","7","5","11","10","9","10"],"weatherIcon":[2202,2202,2402,2202,2202,2402,2402]},{"name":"Elizabeth","lat":"-34.730000000","lng":"138.650000000","src":"Bureau of Meteorology","forecastDate":["2024-10-23","2024-10-24","2024-10-25","2024-10-26","2024-10-27","2024-10-28","2024-10-29","2024-10-30"],"maxTemp":["","20","22","27","27","26","27","27"],"minTemp":["","9","8","11","14","11","9","11"],"weatherIcon":[2202,2202,2202,2202,2402,2402,2402,2402]},{"name":"Emerald","lat":"-23.570000000","lng":"148.180000000","src":"Bureau of Meteorology","forecastDate":["2024-10-23","2024-10-24","2024-10-25","2024-10-26","2024-10-27","2024-10-28","2024-10-29","2024-10-30"],"maxTemp":["","37","35","34","34","31","33","34"],"minTemp":["","21","19","17","19","18","17","17"],"weatherIcon":[2502,203,2402,2402,2202,1101,2402,2402]},{"name":"Esperance","lat":"-33.830000000","lng":"121.890000000","src":"Bureau of Meteorology","forecastDate":["2024-10-23","2024-10-24","2024-10-25","2024-10-26","2024-10-27","2024-10-28","2024-10-29","2024-10-30"],"maxTemp":["","27","26","20","21","25","28","28"],"minTemp":["","9","15","14","10","10","12","13"],"weatherIcon":[2502,2402,2202,2202,2202,2402,2402,2402]},{"name":"Eucla","lat":"-31.680000000","lng":"128.880000000","src":"Bureau of Meteorology","forecastDate":["2024-10-23","2024-10-24","2024-10-25","2024-10-26","2024-10-27","2024-10-28","2024-10-29","2024-10-30"],"maxTemp":["","21","30","24","19","20","24","25"],"minTemp":["","11","9","18","14","12","13","14"],"weatherIcon":[2202,2202,2202,1101,2301,2202,2202,2202]},{"name":"Evandale","lat":"-41.570000000","lng":"147.240000000","src":"Bureau of Meteorology","forecastDate":["2024-10-24","2024-10-25","2024-10-26","2024-10-27","2024-10-28","2024-10-29","2024-10-30"],"maxTemp":["15","15","17","19","18","22","20"],"minTemp":["5","2","1","6","6","5","5"],"weatherIcon":[1101,2202,2202,1101,1101,2202,2202]},{"name":"Exmouth","lat":"-22.240000000","lng":"114.090000000","src":"Bureau of Meteorology","forecastDate":["2024-10-23","2024-10-24","2024-10-25","2024-10-26","2024-10-27","2024-10-28","2024-10-29","2024-10-30"],"maxTemp":["","38","35","37","37","36","36","38"],"minTemp":["","21","21","19","19","21","20","19"],"weatherIcon":[2502,2402,2402,2402,2402,2402,2402,2402]},{"name":"Falls Creek","lat":"-36.870000000","lng":"147.280000000","src":"Bureau of Meteorology","forecastDate":["2024-10-24","2024-10-25","2024-10-26","2024-10-27","2024-10-28","2024-10-29","2024-10-30"],"maxTemp":["8","6","10","10","13","14","15"],"minTemp":["-1","-4","-4","2","3","1","3"],"weatherIcon":[601,2202,2402,1101,1101,2202,2402]},{"name":"Fingal","lat":"-41.640000000","lng":"147.970000000","src":"Bureau of Meteorology","forecastDate":["2024-10-24","2024-10-25","2024-10-26","2024-10-27","2024-10-28","2024-10-29","2024-10-30"],"maxTemp":["15","13","17","19","17","21","20"],"minTemp":["7","3","3","6","7","5","7"],"weatherIcon":[1101,2202,2301,1101,1101,2202,2202]},{"name":"Fitzroy Crossing","lat":"-18.190000000","lng":"125.570000000","src":"Bureau of Meteorology","forecastDate":["2024-10-23","2024-10-24","2024-10-25","2024-10-26","2024-10-27","2024-10-28","2024-10-29","2024-10-30"],"maxTemp":["","44","43","43","42","42","43","42"],"minTemp":["","26","25","25","27","26","27","25"],"weatherIcon":[2202,2202,2202,2202,2202,2202,2202,2202]},{"name":"Forster","lat":"-32.170000000","lng":"152.520000000","src":"Bureau of Meteorology","forecastDate":["2024-10-24","2024-10-25","2024-10-26","2024-10-27","2024-10-28","2024-10-29","2024-10-30"],"maxTemp":["27","23","21","25","27","22","24"],"minTemp":["15","12","12","10","12","14","12"],"weatherIcon":[1101,1101,2202,1101,1101,1101,1101]},{"name":"Frankston","lat":"-38.150000000","lng":"145.120000000","src":"Bureau of Meteorology","forecastDate":["2024-10-24","2024-10-25","2024-10-26","2024-10-27","2024-10-28","2024-10-29","2024-10-30"],"maxTemp":["16","16","20","22","17","19","19"],"minTemp":["9","8","5","11","11","10","10"],"weatherIcon":[1101,2202,2402,1101,1101,2202,2202]},{"name":"Gabo Island","lat":"-37.570000000","lng":"149.920000000","src":"Bureau of Meteorology","forecastDate":[],"maxTemp":[],"minTemp":[],"weatherIcon":[]},{"name":"Geelong","lat":"-38.160000000","lng":"144.420000000","src":"Bureau of Meteorology","forecastDate":["2024-10-24","2024-10-25","2024-10-26","2024-10-27","2024-10-28","2024-10-29","2024-10-30"],"maxTemp":["17","16","20","23","18","19","19"],"minTemp":["9","8","6","12","11","10","11"],"weatherIcon":[1101,2202,2402,1101,1101,2202,2301]},{"name":"Geeveston","lat":"-43.160000000","lng":"146.920000000","src":"Bureau of Meteorology","forecastDate":["2024-10-24","2024-10-25","2024-10-26","2024-10-27","2024-10-28","2024-10-29","2024-10-30"],"maxTemp":["13","13","17","18","15","18","16"],"minTemp":["6","3","1","7","6","7","8"],"weatherIcon":[1101,1101,2301,1101,1101,2301,2301]},{"name":"George Town","lat":"-41.100000000","lng":"146.820000000","src":"Bureau of Meteorology","forecastDate":["2024-10-24","2024-10-25","2024-10-26","2024-10-27","2024-10-28","2024-10-29","2024-10-30"],"maxTemp":["14","15","14","16","16","17","16"],"minTemp":["9","7","7","11","10","9","10"],"weatherIcon":[1101,2202,2202,1101,2202,2202,2202]},{"name":"Geraldton","lat":"-28.800000000","lng":"114.700000000","src":"Bureau of Meteorology","forecastDate":["2024-10-23","2024-10-24","2024-10-25","2024-10-26","2024-10-27","2024-10-28","2024-10-29","2024-10-30"],"maxTemp":["","29","24","25","30","33","34","32"],"minTemp":["","12","13","13","12","17","20","18"],"weatherIcon":[2502,2402,2601,2601,2402,2402,2402,2402]},{"name":"Gladstone","lat":"-23.860000000","lng":"151.260000000","src":"Bureau of Meteorology","forecastDate":["2024-10-23","2024-10-24","2024-10-25","2024-10-26","2024-10-27","2024-10-28","2024-10-29","2024-10-30"],"maxTemp":["","31","32","28","28","28","30","28"],"minTemp":["","21","21","20","21","21","19","19"],"weatherIcon":[2502,1101,1101,1101,2202,1101,2202,1101]},{"name":"Glen Innes","lat":"-29.730000000","lng":"151.730000000","src":"Bureau of Meteorology","forecastDate":["2024-10-24","2024-10-25","2024-10-26","2024-10-27","2024-10-28","2024-10-29","2024-10-30"],"maxTemp":["25","20","20","19","22","23","22"],"minTemp":["9","7","5","7","7","7","7"],"weatherIcon":[203,2202,2202,1101,1101,2202,2202]},{"name":"Glenelg","lat":"-34.980000000","lng":"138.520000000","src":"Bureau of Meteorology","forecastDate":["2024-10-23","2024-10-24","2024-10-25","2024-10-26","2024-10-27","2024-10-28","2024-10-29","2024-10-30"],"maxTemp":["","19","20","25","24","24","25","25"],"minTemp":["","11","9","12","14","11","10","11"],"weatherIcon":[2202,2202,2202,2202,2402,2202,2402,2402]},{"name":"Glenorchy","lat":"-42.830000000","lng":"147.280000000","src":"Bureau of Meteorology","forecastDate":["2024-10-24","2024-10-25","2024-10-26","2024-10-27","2024-10-28","2024-10-29","2024-10-30"],"maxTemp":["14","14","18","20","16","20","19"],"minTemp":["7","5","4","9","8","9","9"],"weatherIcon":[1101,1101,2301,1101,1101,2301,2202]},{"name":"Gold Coast","lat":"-27.990000000","lng":"153.410000000","src":"Bureau of Meteorology","forecastDate":["2024-10-23","2024-10-24","2024-10-25","2024-10-26","2024-10-27","2024-10-28","2024-10-29","2024-10-30"],"maxTemp":["","30","27","24","25","26","26","25"],"minTemp":["","18","17","15","15","15","15","15"],"weatherIcon":[2202,1101,1101,1101,1101,1101,1101,2202]},{"name":"Goondiwindi","lat":"-28.520000000","lng":"150.330000000","src":"Bureau of Meteorology","forecastDate":["2024-10-23","2024-10-24","2024-10-25","2024-10-26","2024-10-27","2024-10-28","2024-10-29","2024-10-30"],"maxTemp":["","36","28","30","30","31","32","31"],"minTemp":["","16","14","10","14","14","14","15"],"weatherIcon":[2502,2202,2402,2402,1101,2202,2202,2202]},{"name":"Gosford","lat":"-33.390000000","lng":"151.330000000","src":"Bureau of Meteorology","forecastDate":["2024-10-24","2024-10-25","2024-10-26","2024-10-27","2024-10-28","2024-10-29","2024-10-30"],"maxTemp":["23","21","19","24","27","20","23"],"minTemp":["15","11","11","10","12","14","12"],"weatherIcon":[1101,1101,2202,2202,1101,1101,1101]},{"name":"Goulburn","lat":"-34.720000000","lng":"149.740000000","src":"Bureau of Meteorology","forecastDate":["2024-10-24","2024-10-25","2024-10-26","2024-10-27","2024-10-28","2024-10-29","2024-10-30"],"maxTemp":["20","17","18","21","24","21","23"],"minTemp":["10","5","3","6","8","8","8"],"weatherIcon":[1101,2202,2402,2301,1101,2202,2202]},{"name":"Grafton","lat":"-29.680000000","lng":"152.930000000","src":"Bureau of Meteorology","forecastDate":["2024-10-24","2024-10-25","2024-10-26","2024-10-27","2024-10-28","2024-10-29","2024-10-30"],"maxTemp":["31","25","22","25","28","24","27"],"minTemp":["15","15","13","14","14","14","14"],"weatherIcon":[203,1101,1101,1101,1101,1101,2202]},{"name":"Griffith","lat":"-34.250000000","lng":"146.070000000","src":"Bureau of Meteorology","forecastDate":["2024-10-24","2024-10-25","2024-10-26","2024-10-27","2024-10-28","2024-10-29","2024-10-30"],"maxTemp":["22","21","24","28","28","28","29"],"minTemp":["10","7","5","10","11","8","10"],"weatherIcon":[2202,2202,2402,2202,2402,2402,2402]},{"name":"Gympie","lat":"-26.180000000","lng":"152.640000000","src":"Bureau of Meteorology","forecastDate":["2024-10-23","2024-10-24","2024-10-25","2024-10-26","2024-10-27","2024-10-28","2024-10-29","2024-10-30"],"maxTemp":["","34","33","28","28","27","30","27"],"minTemp":["","18","18","15","16","16","15","16"],"weatherIcon":[2202,1101,1101,1101,1101,1101,1101,2202]},{"name":"Halls Creek","lat":"-18.230000000","lng":"127.660000000","src":"Bureau of Meteorology","forecastDate":["2024-10-23","2024-10-24","2024-10-25","2024-10-26","2024-10-27","2024-10-28","2024-10-29","2024-10-30"],"maxTemp":["","41","40","41","40","41","40","39"],"minTemp":["","22","25","24","26","24","26","23"],"weatherIcon":[2502,2202,2202,2202,2202,2202,2202,2202]},{"name":"Hamilton","lat":"-37.650000000","lng":"142.060000000","src":"Bureau of Meteorology","forecastDate":["2024-10-24","2024-10-25","2024-10-26","2024-10-27","2024-10-28","2024-10-29","2024-10-30"],"maxTemp":["14","16","20","22","17","20","19"],"minTemp":["6","6","4","10","8","6","8"],"weatherIcon":[1101,2301,2202,1101,1101,2202,2202]},{"name":"Hay","lat":"-34.520000000","lng":"144.850000000","src":"Bureau of Meteorology","forecastDate":["2024-10-24","2024-10-25","2024-10-26","2024-10-27","2024-10-28","2024-10-29","2024-10-30"],"maxTemp":["23","22","24","29","28","28","29"],"minTemp":["9","6","5","12","11","8","10"],"weatherIcon":[2202,2202,2402,2202,2402,2402,2402]},{"name":"Hervey Bay","lat":"-25.290000000","lng":"152.820000000","src":"Bureau of Meteorology","forecastDate":["2024-10-23","2024-10-24","2024-10-25","2024-10-26","2024-10-27","2024-10-28","2024-10-29","2024-10-30"],"maxTemp":["","28","30","27","27","26","28","26"],"minTemp":["","21","19","18","19","19","17","17"],"weatherIcon":[2502,1101,1101,2202,2202,1101,1101,2202]},{"name":"Heywood","lat":"-38.140000000","lng":"141.630000000","src":"Bureau of Meteorology","forecastDate":["2024-10-24","2024-10-25","2024-10-26","2024-10-27","2024-10-28","2024-10-29","2024-10-30"],"maxTemp":["16","17","21","21","17","19","18"],"minTemp":["8","7","5","9","9","8","10"],"weatherIcon":[1101,2202,1101,1101,1101,2202,2301]},{"name":"Hobart","lat":"-42.890000000","lng":"147.330000000","src":"Bureau of Meteorology","forecastDate":["2024-10-24","2024-10-25","2024-10-26","2024-10-27","2024-10-28","2024-10-29","2024-10-30"],"maxTemp":["15","13","18","20","17","20","19"],"minTemp":["8","6","5","10","9","9","10"],"weatherIcon":[1101,1101,2301,1101,1101,2301,2202]},{"name":"Horsham","lat":"-36.650000000","lng":"142.100000000","src":"Bureau of Meteorology","forecastDate":["2024-10-24","2024-10-25","2024-10-26","2024-10-27","2024-10-28","2024-10-29","2024-10-30"],"maxTemp":["18","19","23","26","23","25","25"],"minTemp":["5","4","3","9","7","5","6"],"weatherIcon":[2202,2202,2202,2202,2202,2402,2202]},{"name":"Huonville","lat":"-43.020000000","lng":"147.050000000","src":"Bureau of Meteorology","forecastDate":["2024-10-24","2024-10-25","2024-10-26","2024-10-27","2024-10-28","2024-10-29","2024-10-30"],"maxTemp":["14","13","18","20","15","19","18"],"minTemp":["5","3","1","7","6","7","7"],"weatherIcon":[1101,1101,2301,1101,1101,2301,2301]},{"name":"Ingham","lat":"-18.650000000","lng":"146.180000000","src":"Bureau of Meteorology","forecastDate":["2024-10-23","2024-10-24","2024-10-25","2024-10-26","2024-10-27","2024-10-28","2024-10-29","2024-10-30"],"maxTemp":["","34","34","33","32","33","33","33"],"minTemp":["","20","20","20","22","22","21","20"],"weatherIcon":[2202,2402,2402,2202,2202,2202,2202,2202]},{"name":"Innisfail","lat":"-17.530000000","lng":"146.030000000","src":"Bureau of Meteorology","forecastDate":["2024-10-23","2024-10-24","2024-10-25","2024-10-26","2024-10-27","2024-10-28","2024-10-29","2024-10-30"],"maxTemp":["","31","30","31","30","30","30","30"],"minTemp":["","20","20","19","21","22","22","21"],"weatherIcon":[2202,2202,2202,2202,1101,1101,1101,1101]},{"name":"Inverell","lat":"-29.780000000","lng":"151.110000000","src":"Bureau of Meteorology","forecastDate":["2024-10-24","2024-10-25","2024-10-26","2024-10-27","2024-10-28","2024-10-29","2024-10-30"],"maxTemp":["29","23","24","23","26","27","26"],"minTemp":["12","9","6","9","10","9","9"],"weatherIcon":[203,2202,2402,1101,1101,2402,2402]},{"name":"Ipswich","lat":"-27.620000000","lng":"152.760000000","src":"Bureau of Meteorology","forecastDate":["2024-10-23","2024-10-24","2024-10-25","2024-10-26","2024-10-27","2024-10-28","2024-10-29","2024-10-30"],"maxTemp":["","35","31","27","27","28","29","28"],"minTemp":["","16","16","13","14","15","14","15"],"weatherIcon":[2202,1101,2402,1101,1101,1101,2202,2202]},{"name":"Ivanhoe","lat":"-32.900000000","lng":"144.280000000","src":"Bureau of Meteorology","forecastDate":["2024-10-24","2024-10-25","2024-10-26","2024-10-27","2024-10-28","2024-10-29","2024-10-30"],"maxTemp":["23","23","26","31","30","29","31"],"minTemp":["12","9","8","14","14","12","12"],"weatherIcon":[2402,2202,2202,2202,2402,2402,2402]},{"name":"Jabiru","lat":"-12.660000000","lng":"132.890000000","src":"Bureau of Meteorology","forecastDate":["2024-10-23","2024-10-24","2024-10-25","2024-10-26","2024-10-27","2024-10-28","2024-10-29","2024-10-30"],"maxTemp":["","39","39","41","40","40","39","39"],"minTemp":["","25","25","26","26","26","26","27"],"weatherIcon":[2202,2202,2202,2202,2202,2202,1101,1101]},{"name":"Jindabyne","lat":"-36.420000000","lng":"148.620000000","src":"Bureau of Meteorology","forecastDate":["2024-10-24","2024-10-25","2024-10-26","2024-10-27","2024-10-28","2024-10-29","2024-10-30"],"maxTemp":["16","14","17","19","19","19","21"],"minTemp":["7","4","1","5","6","4","6"],"weatherIcon":[1101,2202,2202,1101,1101,2202,2202]},{"name":"Kalbarri","lat":"-27.710000000","lng":"114.160000000","src":"Bureau of Meteorology","forecastDate":["2024-10-23","2024-10-24","2024-10-25","2024-10-26","2024-10-27","2024-10-28","2024-10-29","2024-10-30"],"maxTemp":["","31","26","26","31","35","34","31"],"minTemp":["","15","15","15","14","19","22","19"],"weatherIcon":[2502,2402,2601,2601,2402,2402,2402,2402]},{"name":"Kalgoorlie","lat":"-30.790000000","lng":"121.450000000","src":"Bureau of Meteorology","forecastDate":["2024-10-23","2024-10-24","2024-10-25","2024-10-26","2024-10-27","2024-10-28","2024-10-29","2024-10-30"],"maxTemp":["","32","39","28","28","30","35","37"],"minTemp":["","12","19","13","10","12","15","18"],"weatherIcon":[2502,2402,2202,2402,2402,2402,2402,2202]},{"name":"Kalumburu","lat":"-14.300000000","lng":"126.640000000","src":"Bureau of Meteorology","forecastDate":["2024-10-23","2024-10-24","2024-10-25","2024-10-26","2024-10-27","2024-10-28","2024-10-29","2024-10-30"],"maxTemp":["","38","38","40","39","38","40","38"],"minTemp":["","25","25","26","25","25","25","26"],"weatherIcon":[1101,2202,2202,2202,1101,1101,2202,1101]},{"name":"Karratha","lat":"-20.710000000","lng":"116.770000000","src":"Bureau of Meteorology","forecastDate":["2024-10-23","2024-10-24","2024-10-25","2024-10-26","2024-10-27","2024-10-28","2024-10-29","2024-10-30"],"maxTemp":["","35","34","39","37","37","36","36"],"minTemp":["","24","23","26","27","26","25","26"],"weatherIcon":[2502,2202,2402,2402,2402,2202,2202,2402]},{"name":"Katanning","lat":"-33.690000000","lng":"117.560000000","src":"Bureau of Meteorology","forecastDate":["2024-10-23","2024-10-24","2024-10-25","2024-10-26","2024-10-27","2024-10-28","2024-10-29","2024-10-30"],"maxTemp":["","29","25","23","25","31","34","35"],"minTemp":["","8","10","9","6","8","12","15"],"weatherIcon":[2502,2402,2202,2202,2202,2402,2402,2402]},{"name":"Katherine","lat":"-14.440000000","lng":"132.270000000","src":"Bureau of Meteorology","forecastDate":["2024-10-23","2024-10-24","2024-10-25","2024-10-26","2024-10-27","2024-10-28","2024-10-29","2024-10-30"],"maxTemp":["","39","39","41","41","41","41","41"],"minTemp":["","27","27","25","25","27","27","27"],"weatherIcon":[2202,2202,2202,2202,2202,2402,2202,2202]},{"name":"Katoomba","lat":"-33.710000000","lng":"150.300000000","src":"Bureau of Meteorology","forecastDate":["2024-10-24","2024-10-25","2024-10-26","2024-10-27","2024-10-28","2024-10-29","2024-10-30"],"maxTemp":["21","17","16","19","23","18","20"],"minTemp":["11","4","4","6","10","8","8"],"weatherIcon":[1101,1101,2202,2301,1101,1101,1101]},{"name":"Keith","lat":"-36.100000000","lng":"140.060000000","src":"Bureau of Meteorology","forecastDate":["2024-10-23","2024-10-24","2024-10-25","2024-10-26","2024-10-27","2024-10-28","2024-10-29","2024-10-30"],"maxTemp":["","19","20","26","27","24","25","25"],"minTemp":["","7","6","6","11","8","6","7"],"weatherIcon":[2202,2202,2301,2202,2202,2202,2402,2202]},{"name":"Kempsey","lat":"-31.080000000","lng":"152.820000000","src":"Bureau of Meteorology","forecastDate":["2024-10-24","2024-10-25","2024-10-26","2024-10-27","2024-10-28","2024-10-29","2024-10-30"],"maxTemp":["29","23","21","25","27","22","25"],"minTemp":["14","13","11","12","12","14","12"],"weatherIcon":[203,1101,2202,1101,1101,1101,1101]},{"name":"Kerang","lat":"-35.720000000","lng":"143.920000000","src":"Bureau of Meteorology","forecastDate":["2024-10-24","2024-10-25","2024-10-26","2024-10-27","2024-10-28","2024-10-29","2024-10-30"],"maxTemp":["20","21","23","28","25","27","28"],"minTemp":["8","7","6","13","11","9","10"],"weatherIcon":[2202,2202,2402,2202,2402,2402,2402]},{"name":"Kilmore Gap","lat":"-37.380000000","lng":"144.970000000","src":"Bureau of Meteorology","forecastDate":["2024-10-24","2024-10-25","2024-10-26","2024-10-27","2024-10-28","2024-10-29","2024-10-30"],"maxTemp":["16","15","20","23","17","18","19"],"minTemp":["7","6","4","10","9","8","9"],"weatherIcon":[2202,2202,2202,1101,1101,1101,2202]},{"name":"Kingaroy","lat":"-26.550000000","lng":"151.850000000","src":"Bureau of Meteorology","forecastDate":["2024-10-23","2024-10-24","2024-10-25","2024-10-26","2024-10-27","2024-10-28","2024-10-29","2024-10-30"],"maxTemp":["","32","29","28","27","25","28","27"],"minTemp":["","14","15","11","13","14","12","13"],"weatherIcon":[2502,203,2402,2202,1101,1101,2202,2202]},{"name":"Kingscote","lat":"-35.660000000","lng":"137.640000000","src":"Bureau of Meteorology","forecastDate":["2024-10-23","2024-10-24","2024-10-25","2024-10-26","2024-10-27","2024-10-28","2024-10-29","2024-10-30"],"maxTemp":["","19","20","23","23","21","23","23"],"minTemp":["","6","5","8","9","7","6","7"],"weatherIcon":[2202,2202,2202,1101,2202,2202,2402,2202]},{"name":"Kingston","lat":"-42.970000000","lng":"147.310000000","src":"Bureau of Meteorology","forecastDate":["2024-10-24","2024-10-25","2024-10-26","2024-10-27","2024-10-28","2024-10-29","2024-10-30"],"maxTemp":["15","13","18","20","16","19","18"],"minTemp":["8","6","5","10","9","10","10"],"weatherIcon":[1101,1101,2301,1101,1101,2301,2202]},{"name":"Kununurra","lat":"-15.780000000","lng":"128.710000000","src":"Bureau of Meteorology","forecastDate":["2024-10-23","2024-10-24","2024-10-25","2024-10-26","2024-10-27","2024-10-28","2024-10-29","2024-10-30"],"maxTemp":["","41","41","42","43","41","42","41"],"minTemp":["","25","25","25","25","24","26","26"],"weatherIcon":[1101,2202,2202,2402,2202,2202,2202,2202]},{"name":"Kurnell","lat":"-34.020000000","lng":"151.210000000","src":"Bureau of Meteorology","forecastDate":["2024-10-24","2024-10-25","2024-10-26","2024-10-27","2024-10-28","2024-10-29","2024-10-30"],"maxTemp":["20","19","17","22","23","19","20"],"minTemp":["18","14","14","13","15","16","15"],"weatherIcon":[1101,1101,2402,2301,1101,1101,1101]},{"name":"Kyabram","lat":"-36.340000000","lng":"145.060000000","src":"Bureau of Meteorology","forecastDate":["2024-10-24","2024-10-25","2024-10-26","2024-10-27","2024-10-28","2024-10-29","2024-10-30"],"maxTemp":["19","19","22","27","23","25","26"],"minTemp":["7","6","5","11","10","8","10"],"weatherIcon":[2202,2202,2402,2202,2202,2402,2402]},{"name":"Kyancutta","lat":"-33.130000000","lng":"135.550000000","src":"Bureau of Meteorology","forecastDate":[],"maxTemp":[],"minTemp":[],"weatherIcon":[]},{"name":"Lajamanu","lat":"-18.330000000","lng":"130.640000000","src":"Bureau of Meteorology","forecastDate":["2024-10-23","2024-10-24","2024-10-25","2024-10-26","2024-10-27","2024-10-28","2024-10-29","2024-10-30"],"maxTemp":["","41","41","40","41","41","41","41"],"minTemp":["","22","23","24","21","22","26","23"],"weatherIcon":[2502,2202,2402,2202,2202,2402,2402,2202]},{"name":"Lake Eildon","lat":"-37.230000000","lng":"145.910000000","src":"Bureau of Meteorology","forecastDate":["2024-10-24","2024-10-25","2024-10-26","2024-10-27","2024-10-28","2024-10-29","2024-10-30"],"maxTemp":["17","17","21","23","21","24","24"],"minTemp":["7","7","3","9","9","7","8"],"weatherIcon":[2202,2202,2402,1101,1101,2202,2202]},{"name":"Lake Grace","lat":"-33.100000000","lng":"118.460000000","src":"Bureau of Meteorology","forecastDate":["2024-10-23","2024-10-24","2024-10-25","2024-10-26","2024-10-27","2024-10-28","2024-10-29","2024-10-30"],"maxTemp":["","32","29","25","27","32","35","36"],"minTemp":["","9","12","11","7","9","13","16"],"weatherIcon":[2502,2402,2202,2202,2402,2402,2402,2402]},{"name":"Lake St Clair","lat":"-42.120000000","lng":"146.180000000","src":"Bureau of Meteorology","forecastDate":["2024-10-24","2024-10-25","2024-10-26","2024-10-27","2024-10-28","2024-10-29","2024-10-30"],"maxTemp":["8","9","14","14","10","13","13"],"minTemp":["0","-1","-3","4","2","2","4"],"weatherIcon":[601,601,2301,1101,1101,1101,1101]},{"name":"Lakes Entrance","lat":"-37.870000000","lng":"148.010000000","src":"Bureau of Meteorology","forecastDate":["2024-10-24","2024-10-25","2024-10-26","2024-10-27","2024-10-28","2024-10-29","2024-10-30"],"maxTemp":["16","15","17","21","17","18","19"],"minTemp":["10","8","7","8","11","9","9"],"weatherIcon":[1101,1101,2202,1101,1101,1101,2202]},{"name":"Latrobe","lat":"-41.230000000","lng":"146.410000000","src":"Bureau of Meteorology","forecastDate":["2024-10-24","2024-10-25","2024-10-26","2024-10-27","2024-10-28","2024-10-29","2024-10-30"],"maxTemp":["14","16","15","17","17","19","18"],"minTemp":["7","5","5","8","8","7","8"],"weatherIcon":[1101,2202,2301,1101,2202,2202,2202]},{"name":"Latrobe Valley","lat":"-38.190000000","lng":"146.330000000","src":"Bureau of Meteorology","forecastDate":["2024-10-24","2024-10-25","2024-10-26","2024-10-27","2024-10-28","2024-10-29","2024-10-30"],"maxTemp":["15","16","20","22","18","20","20"],"minTemp":["8","6","3","8","9","7","8"],"weatherIcon":[1101,1101,2402,1101,1101,1101,2202]},{"name":"Launceston","lat":"-41.540000000","lng":"147.200000000","src":"Bureau of Meteorology","forecastDate":[],"maxTemp":[],"minTemp":[],"weatherIcon":[]},{"name":"Laverton [VIC]","lat":"-37.870000000","lng":"144.760000000","src":"Bureau of Meteorology","forecastDate":["2024-10-24","2024-10-25","2024-10-26","2024-10-27","2024-10-28","2024-10-29","2024-10-30"],"maxTemp":["18","16","20","23","18","19","20"],"minTemp":["9","8","6","12","11","10","10"],"weatherIcon":[1101,2202,2402,1101,1101,1101,2202]},{"name":"Laverton [WA]","lat":"-28.630000000","lng":"122.410000000","src":"Bureau of Meteorology","forecastDate":["2024-10-23","2024-10-24","2024-10-25","2024-10-26","2024-10-27","2024-10-28","2024-10-29","2024-10-30"],"maxTemp":["","33","38","31","29","31","36","38"],"minTemp":["","16","20","19","12","14","20","22"],"weatherIcon":[2502,2402,2202,2202,2402,2402,2202,2202]},{"name":"Leigh Creek","lat":"-30.600000000","lng":"138.420000000","src":"Bureau of Meteorology","forecastDate":["2024-10-23","2024-10-24","2024-10-25","2024-10-26","2024-10-27","2024-10-28","2024-10-29","2024-10-30"],"maxTemp":["","25","27","29","33","33","33","33"],"minTemp":["","13","11","14","17","17","17","19"],"weatherIcon":[2502,2402,2402,2202,2202,2402,2402,2402]},{"name":"Leinster","lat":"-27.838600000","lng":"120.703100000","src":"Bureau of Meteorology","forecastDate":["2024-10-23","2024-10-24","2024-10-25","2024-10-26","2024-10-27","2024-10-28","2024-10-29","2024-10-30"],"maxTemp":["","35","39","32","30","33","37","39"],"minTemp":["","17","22","18","14","16","21","23"],"weatherIcon":[2502,2402,2202,2202,2402,2402,2202,2202]},{"name":"Leonora","lat":"-28.880000000","lng":"121.330000000","src":"Bureau of Meteorology","forecastDate":["2024-10-23","2024-10-24","2024-10-25","2024-10-26","2024-10-27","2024-10-28","2024-10-29","2024-10-30"],"maxTemp":["","35","40","31","30","32","37","39"],"minTemp":["","17","22","18","13","15","21","23"],"weatherIcon":[2502,2402,2202,2202,2402,2402,2202,2202]},{"name":"Liawenee","lat":"-41.900000000","lng":"146.670000000","src":"Bureau of Meteorology","forecastDate":["2024-10-24","2024-10-25","2024-10-26","2024-10-27","2024-10-28","2024-10-29","2024-10-30"],"maxTemp":["8","8","12","13","9","15","15"],"minTemp":["0","-2","-3","2","0","1","3"],"weatherIcon":[601,2301,2301,1101,1101,2202,2202]},{"name":"Lismore","lat":"-28.810000000","lng":"153.260000000","src":"Bureau of Meteorology","forecastDate":["2024-10-24","2024-10-25","2024-10-26","2024-10-27","2024-10-28","2024-10-29","2024-10-30"],"maxTemp":["31","24","22","24","26","24","25"],"minTemp":["14","14","12","13","13","13","13"],"weatherIcon":[203,1101,1101,1101,1101,1101,1101]},{"name":"Lithgow","lat":"-33.480000000","lng":"150.160000000","src":"Bureau of Meteorology","forecastDate":["2024-10-24","2024-10-25","2024-10-26","2024-10-27","2024-10-28","2024-10-29","2024-10-30"],"maxTemp":["21","17","17","19","22","20","21"],"minTemp":["11","5","4","6","7","9","7"],"weatherIcon":[1101,2402,2202,2301,1101,1101,2202]},{"name":"Liverpool","lat":"-33.930000000","lng":"150.910000000","src":"Bureau of Meteorology","forecastDate":["2024-10-24","2024-10-25","2024-10-26","2024-10-27","2024-10-28","2024-10-29","2024-10-30"],"maxTemp":["24","22","20","25","28","22","25"],"minTemp":["15","10","11","10","11","14","11"],"weatherIcon":[1101,2202,2202,2202,1101,1101,1101]},{"name":"Longerenong","lat":"-36.670000000","lng":"142.300000000","src":"Bureau of Meteorology","forecastDate":[],"maxTemp":[],"minTemp":[],"weatherIcon":[]},{"name":"Longreach","lat":"-23.440000000","lng":"144.280000000","src":"Bureau of Meteorology","forecastDate":["2024-10-23","2024-10-24","2024-10-25","2024-10-26","2024-10-27","2024-10-28","2024-10-29","2024-10-30"],"maxTemp":["","41","36","38","39","36","37","37"],"minTemp":["","26","21","18","22","23","21","20"],"weatherIcon":[2202,2202,2402,2402,2601,2202,2402,2202]},{"name":"Lord Howe Island","lat":"-31.540000000","lng":"159.080000000","src":"Bureau of Meteorology","forecastDate":["2024-10-24","2024-10-25","2024-10-26","2024-10-27"],"maxTemp":["23","22","21","21"],"minTemp":["19","17","16","16"],"weatherIcon":[2202,901,2202,2402]},{"name":"Mackay","lat":"-21.120000000","lng":"149.220000000","src":"Bureau of Meteorology","forecastDate":["2024-10-23","2024-10-24","2024-10-25","2024-10-26","2024-10-27","2024-10-28","2024-10-29","2024-10-30"],"maxTemp":["","31","32","30","30","30","30","30"],"minTemp":["","21","21","19","21","21","19","19"],"weatherIcon":[2502,2402,2402,2202,2202,2202,2402,2202]},{"name":"Maitland","lat":"-34.380000000","lng":"137.670000000","src":"Bureau of Meteorology","forecastDate":["2024-10-23","2024-10-24","2024-10-25","2024-10-26","2024-10-27","2024-10-28","2024-10-29","2024-10-30"],"maxTemp":["","20","22","27","26","24","27","26"],"minTemp":["","9","8","12","13","11","11","12"],"weatherIcon":[2502,2202,2202,2202,2202,2202,2402,2402]},{"name":"Maitland and Cessnock","lat":"-32.810000000","lng":"151.350000000","src":"Bureau of Meteorology","forecastDate":["2024-10-24","2024-10-25","2024-10-26","2024-10-27","2024-10-28","2024-10-29","2024-10-30"],"maxTemp":["25","23","20","25","28","22","24"],"minTemp":["15","11","10","9","11","13","11"],"weatherIcon":[1101,1101,2202,2202,1101,1101,1101]},{"name":"Mallacoota","lat":"-37.560000000","lng":"149.750000000","src":"Bureau of Meteorology","forecastDate":["2024-10-24","2024-10-25","2024-10-26","2024-10-27","2024-10-28","2024-10-29","2024-10-30"],"maxTemp":["18","17","18","22","19","20","20"],"minTemp":["11","8","7","9","11","9","11"],"weatherIcon":[2202,1101,2202,1101,1101,1101,1101]},{"name":"Mandurah","lat":"-32.500000000","lng":"115.770000000","src":"Bureau of Meteorology","forecastDate":["2024-10-23","2024-10-24","2024-10-25","2024-10-26","2024-10-27","2024-10-28","2024-10-29","2024-10-30"],"maxTemp":["","23","22","22","25","28","31","31"],"minTemp":["","13","14","13","13","17","19","21"],"weatherIcon":[2502,2402,2202,2202,2402,2402,2402,2402]},{"name":"Maningrida","lat":"-12.050000000","lng":"134.230000000","src":"Bureau of Meteorology","forecastDate":["2024-10-23","2024-10-24","2024-10-25","2024-10-26","2024-10-27","2024-10-28","2024-10-29","2024-10-30"],"maxTemp":["","34","35","35","35","34","35","35"],"minTemp":["","24","25","25","25","25","25","26"],"weatherIcon":[2202,2402,2202,2202,2202,1101,1101,2202]},{"name":"Manjimup","lat":"-34.250000000","lng":"116.140000000","src":"Bureau of Meteorology","forecastDate":["2024-10-23","2024-10-24","2024-10-25","2024-10-26","2024-10-27","2024-10-28","2024-10-29","2024-10-30"],"maxTemp":["","25","21","20","23","29","33","32"],"minTemp":["","8","10","10","7","10","13","15"],"weatherIcon":[2202,2402,2202,2301,2202,2402,2402,2402]},{"name":"Marble Bar","lat":"-21.120000000","lng":"119.680000000","src":"Bureau of Meteorology","forecastDate":["2024-10-23","2024-10-24","2024-10-25","2024-10-26","2024-10-27","2024-10-28","2024-10-29","2024-10-30"],"maxTemp":["","42","43","43","43","42","40","41"],"minTemp":["","27","27","29","29","28","26","28"],"weatherIcon":[2202,2202,2202,2202,2202,2202,2202,2202]},{"name":"Mareeba","lat":"-17.000000000","lng":"145.430000000","src":"Bureau of Meteorology","forecastDate":["2024-10-23","2024-10-24","2024-10-25","2024-10-26","2024-10-27","2024-10-28","2024-10-29","2024-10-30"],"maxTemp":["","34","34","32","31","32","32","32"],"minTemp":["","19","19","18","19","19","21","19"],"weatherIcon":[2202,2202,2202,2402,2202,2202,2202,2202]},{"name":"Margaret River","lat":"-33.950000000","lng":"115.070000000","src":"Bureau of Meteorology","forecastDate":["2024-10-23","2024-10-24","2024-10-25","2024-10-26","2024-10-27","2024-10-28","2024-10-29","2024-10-30"],"maxTemp":["","21","21","21","22","25","27","27"],"minTemp":["","10","12","11","10","11","15","16"],"weatherIcon":[2502,2402,2202,2301,2202,2402,2402,2402]},{"name":"Marrawah","lat":"-40.910000000","lng":"144.710000000","src":"Bureau of Meteorology","forecastDate":["2024-10-24","2024-10-25","2024-10-26","2024-10-27","2024-10-28","2024-10-29","2024-10-30"],"maxTemp":["13","13","15","16","14","15","15"],"minTemp":["8","7","5","9","9","9","9"],"weatherIcon":[1101,2202,2301,1101,1101,2301,2202]},{"name":"Maryborough","lat":"-25.520000000","lng":"152.710000000","src":"Bureau of Meteorology","forecastDate":["2024-10-23","2024-10-24","2024-10-25","2024-10-26","2024-10-27","2024-10-28","2024-10-29","2024-10-30"],"maxTemp":["","32","32","28","28","27","30","27"],"minTemp":["","19","18","16","17","17","15","16"],"weatherIcon":[2502,1101,1101,2202,1101,1101,1101,2202]},{"name":"Maryborough [VIC]","lat":"-37.060000000","lng":"143.730000000","src":"Bureau of Meteorology","forecastDate":["2024-10-24","2024-10-25","2024-10-26","2024-10-27","2024-10-28","2024-10-29","2024-10-30"],"maxTemp":["17","18","22","25","21","23","24"],"minTemp":["6","7","4","11","9","7","8"],"weatherIcon":[2202,2202,2402,2202,2202,2202,2202]},{"name":"Maydena","lat":"-42.760000000","lng":"146.620000000","src":"Bureau of Meteorology","forecastDate":["2024-10-24","2024-10-25","2024-10-26","2024-10-27","2024-10-28","2024-10-29","2024-10-30"],"maxTemp":["11","12","16","17","13","15","15"],"minTemp":["3","2","0","6","4","6","7"],"weatherIcon":[1101,1101,2301,1101,1101,1101,1101]},{"name":"Meekatharra","lat":"-26.610000000","lng":"118.540000000","src":"Bureau of Meteorology","forecastDate":["2024-10-23","2024-10-24","2024-10-25","2024-10-26","2024-10-27","2024-10-28","2024-10-29","2024-10-30"],"maxTemp":["","38","39","35","33","36","39","39"],"minTemp":["","21","24","21","20","20","22","24"],"weatherIcon":[2502,2402,2202,2402,2202,2402,2202,2402]},{"name":"Melaleuca","lat":"-43.450000000","lng":"146.150000000","src":"Bureau of Meteorology","forecastDate":["2024-10-24","2024-10-25","2024-10-26","2024-10-27","2024-10-28","2024-10-29","2024-10-30"],"maxTemp":["11","12","14","15","13","14","13"],"minTemp":["7","5","6","9","7","9","9"],"weatherIcon":[1101,1101,1101,1101,1101,1101,1101]},{"name":"Melbourne","lat":"-37.810000000","lng":"144.970000000","src":"Bureau of Meteorology","forecastDate":["2024-10-24","2024-10-25","2024-10-26","2024-10-27","2024-10-28","2024-10-29","2024-10-30"],"maxTemp":["17","15","20","23","17","18","19"],"minTemp":["11","10","7","13","12","12","12"],"weatherIcon":[1101,2202,2402,1101,1101,1101,2202]},{"name":"Merimbula","lat":"-36.900000000","lng":"149.900000000","src":"Bureau of Meteorology","forecastDate":["2024-10-24","2024-10-25","2024-10-26","2024-10-27","2024-10-28","2024-10-29","2024-10-30"],"maxTemp":["21","18","18","22","21","21","21"],"minTemp":["9","7","5","7","9","7","8"],"weatherIcon":[1101,2601,2202,1101,1101,1101,2202]},{"name":"Merredin","lat":"-31.480000000","lng":"118.280000000","src":"Bureau of Meteorology","forecastDate":["2024-10-23","2024-10-24","2024-10-25","2024-10-26","2024-10-27","2024-10-28","2024-10-29","2024-10-30"],"maxTemp":["","35","35","29","30","33","37","38"],"minTemp":["","11","13","12","10","13","18","20"],"weatherIcon":[2502,2402,2202,2202,2402,2402,2402,2202]},{"name":"Mildura","lat":"-34.230000000","lng":"142.080000000","src":"Bureau of Meteorology","forecastDate":["2024-10-24","2024-10-25","2024-10-26","2024-10-27","2024-10-28","2024-10-29","2024-10-30"],"maxTemp":["22","22","26","30","28","28","30"],"minTemp":["9","7","9","15","12","12","12"],"weatherIcon":[2202,2202,2202,2202,2402,2402,2402]},{"name":"Moora","lat":"-30.640000000","lng":"116.010000000","src":"Bureau of Meteorology","forecastDate":["2024-10-23","2024-10-24","2024-10-25","2024-10-26","2024-10-27","2024-10-28","2024-10-29","2024-10-30"],"maxTemp":["","35","30","29","32","35","37","39"],"minTemp":["","11","11","11","12","15","18","21"],"weatherIcon":[2502,2402,2202,2202,2402,2402,2402,2202]},{"name":"Moorabbin","lat":"-37.940000000","lng":"145.040000000","src":"Bureau of Meteorology","forecastDate":["2024-10-24","2024-10-25","2024-10-26","2024-10-27","2024-10-28","2024-10-29","2024-10-30"],"maxTemp":["17","16","20","23","17","19","20"],"minTemp":["10","9","6","13","11","11","11"],"weatherIcon":[1101,1101,2402,1101,1101,1101,2202]},{"name":"Moranbah","lat":"-21.990000000","lng":"148.030000000","src":"Bureau of Meteorology","forecastDate":["2024-10-23","2024-10-24","2024-10-25","2024-10-26","2024-10-27","2024-10-28","2024-10-29","2024-10-30"],"maxTemp":["","36","36","35","34","33","33","34"],"minTemp":["","19","19","19","18","18","17","16"],"weatherIcon":[2502,1101,2402,2402,2402,2202,2402,2402]},{"name":"Morawa","lat":"-29.210000000","lng":"116.010000000","src":"Bureau of Meteorology","forecastDate":["2024-10-23","2024-10-24","2024-10-25","2024-10-26","2024-10-27","2024-10-28","2024-10-29","2024-10-30"],"maxTemp":["","36","34","31","33","35","39","40"],"minTemp":["","13","14","12","14","17","20","22"],"weatherIcon":[2502,2402,2402,2402,2402,2402,2202,2402]},{"name":"Moree","lat":"-29.480000000","lng":"149.840000000","src":"Bureau of Meteorology","forecastDate":["2024-10-24","2024-10-25","2024-10-26","2024-10-27","2024-10-28","2024-10-29","2024-10-30"],"maxTemp":["33","27","28","29","31","32","32"],"minTemp":["16","12","10","13","13","13","15"],"weatherIcon":[1101,2402,2402,1101,2202,2402,2402]},{"name":"Mornington","lat":"-38.240000000","lng":"145.070000000","src":"Bureau of Meteorology","forecastDate":["2024-10-24","2024-10-25","2024-10-26","2024-10-27","2024-10-28","2024-10-29","2024-10-30"],"maxTemp":["16","16","19","22","17","18","19"],"minTemp":["9","8","5","11","10","9","10"],"weatherIcon":[1101,2202,2402,1101,1101,2202,2202]},{"name":"Mornington Peninsula","lat":"-38.240000000","lng":"145.070000000","src":"Bureau of Meteorology","forecastDate":[],"maxTemp":[],"minTemp":[],"weatherIcon":[]},{"name":"Mortlake","lat":"-38.080000000","lng":"142.770000000","src":"Bureau of Meteorology","forecastDate":["2024-10-24","2024-10-25","2024-10-26","2024-10-27","2024-10-28","2024-10-29","2024-10-30"],"maxTemp":["15","16","21","22","17","19","19"],"minTemp":["6","5","3","9","7","6","8"],"weatherIcon":[1101,2202,2202,1101,1101,2202,2301]},{"name":"Mount Barker","lat":"-35.060000000","lng":"138.850000000","src":"Bureau of Meteorology","forecastDate":["2024-10-23","2024-10-24","2024-10-25","2024-10-26","2024-10-27","2024-10-28","2024-10-29","2024-10-30"],"maxTemp":["","17","20","24","25","21","24","24"],"minTemp":["","7","6","8","11","9","7","9"],"weatherIcon":[2202,2202,2202,2202,2402,2202,2402,2202]},{"name":"Mount Baw Baw","lat":"-37.840000000","lng":"146.270000000","src":"Bureau of Meteorology","forecastDate":["2024-10-24","2024-10-25","2024-10-26","2024-10-27","2024-10-28","2024-10-29","2024-10-30"],"maxTemp":["4","5","11","12","9","11","11"],"minTemp":["-1","-2","-2","3","3","1","3"],"weatherIcon":[601,601,2402,1101,1101,1101,2202]},{"name":"Mount Buller","lat":"-37.150000000","lng":"146.440000000","src":"Bureau of Meteorology","forecastDate":["2024-10-24","2024-10-25","2024-10-26","2024-10-27","2024-10-28","2024-10-29","2024-10-30"],"maxTemp":["5","5","10","11","11","13","14"],"minTemp":["-2","-3","-3","3","3","1","3"],"weatherIcon":[2301,2202,2402,1101,1101,2202,2402]},{"name":"Mount Dandenong","lat":"-37.830000000","lng":"145.350000000","src":"Bureau of Meteorology","forecastDate":["2024-10-24","2024-10-25","2024-10-26","2024-10-27","2024-10-28","2024-10-29","2024-10-30"],"maxTemp":["12","11","16","19","13","15","16"],"minTemp":["5","4","3","10","7","6","6"],"weatherIcon":[1101,1101,2402,1101,1101,2202,2202]},{"name":"Mount Field","lat":"-42.690000000","lng":"146.590000000","src":"Bureau of Meteorology","forecastDate":["2024-10-24","2024-10-25","2024-10-26","2024-10-27","2024-10-28","2024-10-29","2024-10-30"],"maxTemp":["6","6","11","11","8","11","10"],"minTemp":["-1","-2","-2","3","1","1","2"],"weatherIcon":[601,601,1101,1101,601,1101,1101]},{"name":"Mount Gambier","lat":"-37.820000000","lng":"140.780000000","src":"Bureau of Meteorology","forecastDate":["2024-10-23","2024-10-24","2024-10-25","2024-10-26","2024-10-27","2024-10-28","2024-10-29","2024-10-30"],"maxTemp":["","16","17","21","22","18","19","19"],"minTemp":["","7","7","5","9","8","6","9"],"weatherIcon":[1101,1101,2202,1101,1101,2202,2202,2202]},{"name":"Mount Hotham","lat":"-36.980000000","lng":"147.130000000","src":"Bureau of Meteorology","forecastDate":["2024-10-24","2024-10-25","2024-10-26","2024-10-27","2024-10-28","2024-10-29","2024-10-30"],"maxTemp":["7","5","9","9","11","13","14"],"minTemp":["-1","-4","-4","2","3","0","2"],"weatherIcon":[2202,2202,2402,1101,1101,2202,2402]},{"name":"Mount Isa","lat":"-20.680000000","lng":"139.490000000","src":"Bureau of Meteorology","forecastDate":["2024-10-23","2024-10-24","2024-10-25","2024-10-26","2024-10-27","2024-10-28","2024-10-29","2024-10-30"],"maxTemp":["","42","38","38","39","39","38","38"],"minTemp":["","20","20","16","18","21","21","21"],"weatherIcon":[2202,2402,2402,2402,2402,2402,2402,2402]},{"name":"Mount Moornapa","lat":"-37.750000000","lng":"147.140000000","src":"Bureau of Meteorology","forecastDate":[],"maxTemp":[],"minTemp":[],"weatherIcon":[]},{"name":"Mount Nowa Nowa","lat":"-37.690000000","lng":"148.090000000","src":"Bureau of Meteorology","forecastDate":[],"maxTemp":[],"minTemp":[],"weatherIcon":[]},{"name":"Mount Wellington","lat":"-42.900000000","lng":"147.240000000","src":"Bureau of Meteorology","forecastDate":["2024-10-24","2024-10-25","2024-10-26","2024-10-27","2024-10-28","2024-10-29","2024-10-30"],"maxTemp":["4","3","8","10","6","10","9"],"minTemp":["-2","-4","-3","1","0","0","1"],"weatherIcon":[601,601,2301,1101,601,2601,2601]},{"name":"Mowbray","lat":"-41.400000000","lng":"147.140000000","src":"Bureau of Meteorology","forecastDate":["2024-10-24","2024-10-25","2024-10-26","2024-10-27","2024-10-28","2024-10-29","2024-10-30"],"maxTemp":["16","16","18","20","19","23","21"],"minTemp":["8","4","4","8","8","7","8"],"weatherIcon":[1101,2202,2202,1101,1101,2202,2202]},{"name":"Mudgee","lat":"-32.600000000","lng":"149.600000000","src":"Bureau of Meteorology","forecastDate":["2024-10-24","2024-10-25","2024-10-26","2024-10-27","2024-10-28","2024-10-29","2024-10-30"],"maxTemp":["25","21","21","24","27","25","27"],"minTemp":["12","6","5","7","7","10","8"],"weatherIcon":[1101,2402,2202,2301,2202,2202,2402]},{"name":"Murray Bridge","lat":"-35.120000000","lng":"139.270000000","src":"Bureau of Meteorology","forecastDate":["2024-10-23","2024-10-24","2024-10-25","2024-10-26","2024-10-27","2024-10-28","2024-10-29","2024-10-30"],"maxTemp":["","21","22","27","28","23","25","25"],"minTemp":["","9","8","8","12","11","8","9"],"weatherIcon":[2202,2202,2202,2202,2402,2202,2402,2202]},{"name":"Naracoorte","lat":"-36.960000000","lng":"140.740000000","src":"Bureau of Meteorology","forecastDate":["2024-10-23","2024-10-24","2024-10-25","2024-10-26","2024-10-27","2024-10-28","2024-10-29","2024-10-30"],"maxTemp":["","17","19","23","24","21","23","22"],"minTemp":["","6","5","5","10","9","5","8"],"weatherIcon":[1101,2202,2301,2202,2202,2202,2402,2202]},{"name":"Narrabri","lat":"-30.330000000","lng":"149.750000000","src":"Bureau of Meteorology","forecastDate":["2024-10-24","2024-10-25","2024-10-26","2024-10-27","2024-10-28","2024-10-29","2024-10-30"],"maxTemp":["31","26","27","28","31","31","31"],"minTemp":["15","10","9","11","11","12","12"],"weatherIcon":[203,2402,2402,1101,2202,2402,2402]},{"name":"Narrogin","lat":"-32.930000000","lng":"117.180000000","src":"Bureau of Meteorology","forecastDate":["2024-10-23","2024-10-24","2024-10-25","2024-10-26","2024-10-27","2024-10-28","2024-10-29","2024-10-30"],"maxTemp":["","31","27","25","27","32","36","37"],"minTemp":["","9","11","10","8","10","14","17"],"weatherIcon":[2502,2402,2202,2202,2402,2402,2402,2402]},{"name":"New Norfolk","lat":"-42.780000000","lng":"147.050000000","src":"Bureau of Meteorology","forecastDate":["2024-10-24","2024-10-25","2024-10-26","2024-10-27","2024-10-28","2024-10-29","2024-10-30"],"maxTemp":["14","14","19","20","16","19","19"],"minTemp":["6","3","2","7","7","7","7"],"weatherIcon":[1101,1101,2301,1101,1101,2301,2202]},{"name":"Newcastle","lat":"-32.920000000","lng":"151.800000000","src":"Bureau of Meteorology","forecastDate":["2024-10-24","2024-10-25","2024-10-26","2024-10-27","2024-10-28","2024-10-29","2024-10-30"],"maxTemp":["24","21","20","25","27","21","23"],"minTemp":["16","13","12","11","13","15","13"],"weatherIcon":[1101,1101,2202,2202,1101,1101,1101]},{"name":"Newman","lat":"-23.370000000","lng":"119.730000000","src":"Bureau of Meteorology","forecastDate":["2024-10-23","2024-10-24","2024-10-25","2024-10-26","2024-10-27","2024-10-28","2024-10-29","2024-10-30"],"maxTemp":["","37","38","39","37","38","37","37"],"minTemp":["","25","23","25","22","24","22","23"],"weatherIcon":[203,203,2202,2402,2202,2202,2202,2202]},{"name":"Nhill","lat":"-36.330000000","lng":"141.640000000","src":"Bureau of Meteorology","forecastDate":["2024-10-24","2024-10-25","2024-10-26","2024-10-27","2024-10-28","2024-10-29","2024-10-30"],"maxTemp":["19","19","24","27","23","25","25"],"minTemp":["5","5","5","11","8","6","8"],"weatherIcon":[2202,2202,2202,2202,2202,2402,2202]},{"name":"Nhulunbuy","lat":"-12.270000000","lng":"136.820000000","src":"Bureau of Meteorology","forecastDate":["2024-10-23","2024-10-24","2024-10-25","2024-10-26","2024-10-27","2024-10-28","2024-10-29","2024-10-30"],"maxTemp":["","32","32","32","33","33","33","33"],"minTemp":["","24","23","23","24","24","25","25"],"weatherIcon":[2202,2202,2202,2202,2202,1101,1101,2202]},{"name":"Noarlunga","lat":"-35.160000000","lng":"138.510000000","src":"Bureau of Meteorology","forecastDate":["2024-10-23","2024-10-24","2024-10-25","2024-10-26","2024-10-27","2024-10-28","2024-10-29","2024-10-30"],"maxTemp":["","19","20","25","24","23","25","24"],"minTemp":["","11","9","12","14","11","11","13"],"weatherIcon":[1101,2202,2202,2202,2402,2202,2402,2402]},{"name":"Norfolk Island","lat":"-29.040000000","lng":"167.940000000","src":"Bureau of Meteorology","forecastDate":["2024-10-24","2024-10-25","2024-10-26","2024-10-27"],"maxTemp":["23","23","23","22"],"minTemp":["17","18","17","16"],"weatherIcon":[2202,1201,1201,2402]},{"name":"Normanton","lat":"-17.690000000","lng":"141.070000000","src":"Bureau of Meteorology","forecastDate":["2024-10-23","2024-10-24","2024-10-25","2024-10-26","2024-10-27","2024-10-28","2024-10-29","2024-10-30"],"maxTemp":["","35","40","38","39","40","39","38"],"minTemp":["","26","26","25","26","26","27","27"],"weatherIcon":[2202,1101,2202,2202,2402,2402,2402,2202]},{"name":"Norseman","lat":"-32.200000000","lng":"121.780000000","src":"Bureau of Meteorology","forecastDate":["2024-10-23","2024-10-24","2024-10-25","2024-10-26","2024-10-27","2024-10-28","2024-10-29","2024-10-30"],"maxTemp":["","31","37","25","27","30","34","36"],"minTemp":["","9","17","12","7","8","11","13"],"weatherIcon":[2502,2402,2202,2202,2402,2402,2402,2202]},{"name":"Northam","lat":"-31.640000000","lng":"116.670000000","src":"Bureau of Meteorology","forecastDate":["2024-10-23","2024-10-24","2024-10-25","2024-10-26","2024-10-27","2024-10-28","2024-10-29","2024-10-30"],"maxTemp":["","34","31","28","30","34","37","39"],"minTemp":["","10","12","11","10","13","15","19"],"weatherIcon":[2502,2402,2202,2202,2402,2402,2402,2402]},{"name":"Nowra","lat":"-34.940000000","lng":"150.550000000","src":"Bureau of Meteorology","forecastDate":["2024-10-24","2024-10-25","2024-10-26","2024-10-27","2024-10-28","2024-10-29","2024-10-30"],"maxTemp":["19","19","19","26","24","21","23"],"minTemp":["13","9","7","7","11","12","10"],"weatherIcon":[1101,1101,2402,2202,1101,1101,1101]},{"name":"Nuriootpa","lat":"-34.480000000","lng":"139.000000000","src":"Bureau of Meteorology","forecastDate":["2024-10-23","2024-10-24","2024-10-25","2024-10-26","2024-10-27","2024-10-28","2024-10-29","2024-10-30"],"maxTemp":["","18","20","25","26","25","26","26"],"minTemp":["","7","6","9","13","9","8","10"],"weatherIcon":[2202,2202,2202,2202,2202,2202,2402,2402]},{"name":"Oatlands","lat":"-42.300000000","lng":"147.370000000","src":"Bureau of Meteorology","forecastDate":["2024-10-24","2024-10-25","2024-10-26","2024-10-27","2024-10-28","2024-10-29","2024-10-30"],"maxTemp":["12","11","15","17","14","18","17"],"minTemp":["4","2","0","5","5","5","5"],"weatherIcon":[1101,1101,2301,1101,1101,2202,2202]},{"name":"Onslow","lat":"-21.630000000","lng":"115.120000000","src":"Bureau of Meteorology","forecastDate":["2024-10-23","2024-10-24","2024-10-25","2024-10-26","2024-10-27","2024-10-28","2024-10-29","2024-10-30"],"maxTemp":["","37","35","40","38","36","35","37"],"minTemp":["","23","22","22","22","22","21","22"],"weatherIcon":[2502,2402,2402,2402,2402,2402,2402,2402]},{"name":"Orange","lat":"-33.380000000","lng":"149.120000000","src":"Bureau of Meteorology","forecastDate":["2024-10-24","2024-10-25","2024-10-26","2024-10-27","2024-10-28","2024-10-29","2024-10-30"],"maxTemp":["18","15","17","19","22","21","22"],"minTemp":["9","3","1","5","6","6","6"],"weatherIcon":[1101,2402,2202,2301,2202,2202,2402]},{"name":"Orbost","lat":"-37.690000000","lng":"148.460000000","src":"Bureau of Meteorology","forecastDate":["2024-10-24","2024-10-25","2024-10-26","2024-10-27","2024-10-28","2024-10-29","2024-10-30"],"maxTemp":["16","15","17","22","17","18","19"],"minTemp":["9","8","5","7","10","8","9"],"weatherIcon":[2202,1101,2202,1101,1101,1101,1101]},{"name":"Orford","lat":"-42.550000000","lng":"147.880000000","src":"Bureau of Meteorology","forecastDate":["2024-10-24","2024-10-25","2024-10-26","2024-10-27","2024-10-28","2024-10-29","2024-10-30"],"maxTemp":["15","13","16","19","16","19","18"],"minTemp":["8","5","5","9","9","9","9"],"weatherIcon":[1101,1101,2202,1101,1101,2202,2202]},{"name":"Ouse","lat":"-42.480000000","lng":"146.710000000","src":"Bureau of Meteorology","forecastDate":["2024-10-24","2024-10-25","2024-10-26","2024-10-27","2024-10-28","2024-10-29","2024-10-30"],"maxTemp":["13","14","18","19","15","18","19"],"minTemp":["5","2","0","7","5","7","7"],"weatherIcon":[1101,2301,2301,1101,1101,2301,2202]},{"name":"Ouyen","lat":"-35.070000000","lng":"142.320000000","src":"Bureau of Meteorology","forecastDate":["2024-10-24","2024-10-25","2024-10-26","2024-10-27","2024-10-28","2024-10-29","2024-10-30"],"maxTemp":["21","22","26","30","27","28","29"],"minTemp":["8","7","8","14","11","9","10"],"weatherIcon":[2202,2202,2202,2202,2402,2402,2402]},{"name":"Paraburdoo","lat":"-23.170000000","lng":"117.750000000","src":"Bureau of Meteorology","forecastDate":["2024-10-23","2024-10-24","2024-10-25","2024-10-26","2024-10-27","2024-10-28","2024-10-29","2024-10-30"],"maxTemp":["","41","41","40","41","41","40","39"],"minTemp":["","26","26","24","21","25","25","25"],"weatherIcon":[2202,2202,2202,2402,2402,2202,2202,2202]},{"name":"Parkes","lat":"-33.140000000","lng":"148.160000000","src":"Bureau of Meteorology","forecastDate":["2024-10-24","2024-10-25","2024-10-26","2024-10-27","2024-10-28","2024-10-29","2024-10-30"],"maxTemp":["23","20","23","25","28","27","28"],"minTemp":["11","5","3","9","8","7","8"],"weatherIcon":[2202,2402,2402,2301,2402,2402,2402]},{"name":"Parramatta","lat":"-33.800000000","lng":"151.020000000","src":"Bureau of Meteorology","forecastDate":["2024-10-24","2024-10-25","2024-10-26","2024-10-27","2024-10-28","2024-10-29","2024-10-30"],"maxTemp":["23","21","19","25","27","21","23"],"minTemp":["16","11","11","10","12","15","12"],"weatherIcon":[1101,1101,2202,2202,1101,1101,1101]},{"name":"Penguin","lat":"-41.110000000","lng":"146.070000000","src":"Bureau of Meteorology","forecastDate":["2024-10-24","2024-10-25","2024-10-26","2024-10-27","2024-10-28","2024-10-29","2024-10-30"],"maxTemp":["15","16","15","17","17","19","18"],"minTemp":["7","6","5","8","9","8","9"],"weatherIcon":[1101,2202,2202,1101,2202,2202,2202]},{"name":"Penrith","lat":"-33.720000000","lng":"150.670000000","src":"Bureau of Meteorology","forecastDate":["2024-10-24","2024-10-25","2024-10-26","2024-10-27","2024-10-28","2024-10-29","2024-10-30"],"maxTemp":["25","24","21","26","29","23","25"],"minTemp":["15","11","11","10","11","14","12"],"weatherIcon":[1101,2202,2202,2202,1101,1101,2202]},{"name":"Perisher Valley","lat":"-36.400000000","lng":"148.400000000","src":"Bureau of Meteorology","forecastDate":["2024-10-24","2024-10-25","2024-10-26","2024-10-27","2024-10-28","2024-10-29","2024-10-30"],"maxTemp":["11","8","11","12","15","15","16"],"minTemp":["1","-2","-5","1","2","-1","1"],"weatherIcon":[601,2202,2202,1101,1101,2202,2202]},{"name":"Perth","lat":"-31.930000000","lng":"115.980000000","src":"Bureau of Meteorology","forecastDate":["2024-10-23","2024-10-24","2024-10-25","2024-10-26","2024-10-27","2024-10-28","2024-10-29","2024-10-30"],"maxTemp":["","31","27","26","30","35","37","39"],"minTemp":["","11","12","12","13","16","19","22"],"weatherIcon":[2502,2402,2202,2202,2402,2402,2402,2402]},{"name":"Phillip Island","lat":"-38.510000000","lng":"145.150000000","src":"Bureau of Meteorology","forecastDate":["2024-10-24","2024-10-25","2024-10-26","2024-10-27","2024-10-28","2024-10-29","2024-10-30"],"maxTemp":["16","16","18","20","17","17","18"],"minTemp":["10","9","8","12","11","11","11"],"weatherIcon":[1101,2601,2402,1101,1101,2202,2301]},{"name":"Pirlangimpi","lat":"-11.400000000","lng":"130.420000000","src":"Bureau of Meteorology","forecastDate":["2024-10-23","2024-10-24","2024-10-25","2024-10-26","2024-10-27","2024-10-28","2024-10-29","2024-10-30"],"maxTemp":["","36","36","37","36","37","37","36"],"minTemp":["","24","24","25","25","25","25","26"],"weatherIcon":[2202,2202,1101,1101,1101,1101,1101,1101]},{"name":"Point Hicks","lat":"-37.800000000","lng":"149.270000000","src":"Bureau of Meteorology","forecastDate":[],"maxTemp":[],"minTemp":[],"weatherIcon":[]},{"name":"Port Arthur","lat":"-43.140000000","lng":"147.850000000","src":"Bureau of Meteorology","forecastDate":["2024-10-24","2024-10-25","2024-10-26","2024-10-27","2024-10-28","2024-10-29","2024-10-30"],"maxTemp":["14","13","16","18","16","18","17"],"minTemp":["8","6","8","10","9","10","10"],"weatherIcon":[1101,1101,2202,1101,1101,1101,2202]},{"name":"Port Augusta","lat":"-32.530000000","lng":"137.790000000","src":"Bureau of Meteorology","forecastDate":["2024-10-23","2024-10-24","2024-10-25","2024-10-26","2024-10-27","2024-10-28","2024-10-29","2024-10-30"],"maxTemp":["","22","26","29","31","28","31","32"],"minTemp":["","13","10","14","17","15","14","15"],"weatherIcon":[2601,2202,2402,2202,2601,2601,2402,2402]},{"name":"Port Hedland","lat":"-20.370000000","lng":"118.630000000","src":"Bureau of Meteorology","forecastDate":["2024-10-23","2024-10-24","2024-10-25","2024-10-26","2024-10-27","2024-10-28","2024-10-29","2024-10-30"],"maxTemp":["","38","39","42","42","39","38","38"],"minTemp":["","24","24","27","28","25","25","26"],"weatherIcon":[2502,2202,2402,2402,2402,2202,2402,2402]},{"name":"Port Lincoln","lat":"-34.720000000","lng":"135.860000000","src":"Bureau of Meteorology","forecastDate":["2024-10-23","2024-10-24","2024-10-25","2024-10-26","2024-10-27","2024-10-28","2024-10-29","2024-10-30"],"maxTemp":["","20","21","25","22","20","21","22"],"minTemp":["","10","9","12","13","11","11","12"],"weatherIcon":[2202,2202,2202,1101,2402,2202,2402,2202]},{"name":"Port Macquarie","lat":"-31.440000000","lng":"152.920000000","src":"Bureau of Meteorology","forecastDate":["2024-10-24","2024-10-25","2024-10-26","2024-10-27","2024-10-28","2024-10-29","2024-10-30"],"maxTemp":["27","22","21","24","27","21","24"],"minTemp":["15","13","11","12","12","14","12"],"weatherIcon":[203,1101,2202,1101,1101,1101,1101]},{"name":"Port Pirie","lat":"-33.170000000","lng":"138.010000000","src":"Bureau of Meteorology","forecastDate":["2024-10-23","2024-10-24","2024-10-25","2024-10-26","2024-10-27","2024-10-28","2024-10-29","2024-10-30"],"maxTemp":["","21","24","29","30","28","29","29"],"minTemp":["","10","7","13","13","11","10","11"],"weatherIcon":[2601,2202,2202,2202,2402,2402,2402,2402]},{"name":"Portland","lat":"-38.340000000","lng":"141.600000000","src":"Bureau of Meteorology","forecastDate":["2024-10-24","2024-10-25","2024-10-26","2024-10-27","2024-10-28","2024-10-29","2024-10-30"],"maxTemp":["14","15","19","19","16","17","16"],"minTemp":["9","8","6","10","10","9","11"],"weatherIcon":[1101,2202,1101,1101,1101,2301,2301]},{"name":"Prospect","lat":"-41.460000000","lng":"147.130000000","src":"Bureau of Meteorology","forecastDate":["2024-10-24","2024-10-25","2024-10-26","2024-10-27","2024-10-28","2024-10-29","2024-10-30"],"maxTemp":["15","15","17","19","18","22","20"],"minTemp":["6","3","3","7","7","5","6"],"weatherIcon":[1101,2202,2202,1101,1101,2202,2202]},{"name":"Queenstown","lat":"-42.080000000","lng":"145.550000000","src":"Bureau of Meteorology","forecastDate":["2024-10-24","2024-10-25","2024-10-26","2024-10-27","2024-10-28","2024-10-29","2024-10-30"],"maxTemp":["12","13","16","17","14","15","15"],"minTemp":["5","4","3","8","6","7","8"],"weatherIcon":[1101,1101,1101,1101,1101,1101,1101]},{"name":"Ravensthorpe","lat":"-33.580000000","lng":"120.040000000","src":"Bureau of Meteorology","forecastDate":["2024-10-23","2024-10-24","2024-10-25","2024-10-26","2024-10-27","2024-10-28","2024-10-29","2024-10-30"],"maxTemp":["","32","25","22","25","30","35","34"],"minTemp":["","8","12","11","7","8","11","13"],"weatherIcon":[2502,2402,2202,1101,2202,2402,2402,2402]},{"name":"Redesdale","lat":"-37.020000000","lng":"144.520000000","src":"Bureau of Meteorology","forecastDate":["2024-10-24","2024-10-25","2024-10-26","2024-10-27","2024-10-28","2024-10-29","2024-10-30"],"maxTemp":["17","17","21","25","21","23","23"],"minTemp":["5","4","2","9","8","6","7"],"weatherIcon":[2202,2202,2202,2202,2202,2202,2202]},{"name":"Renmark","lat":"-34.170000000","lng":"140.750000000","src":"Bureau of Meteorology","forecastDate":["2024-10-23","2024-10-24","2024-10-25","2024-10-26","2024-10-27","2024-10-28","2024-10-29","2024-10-30"],"maxTemp":["","23","22","27","30","28","29","30"],"minTemp":["","8","6","8","14","10","10","10"],"weatherIcon":[2502,2202,2202,2202,2202,2402,2402,2402]},{"name":"Rhyll","lat":"-38.460000000","lng":"145.310000000","src":"Bureau of Meteorology","forecastDate":["2024-10-24","2024-10-25","2024-10-26","2024-10-27","2024-10-28","2024-10-29","2024-10-30"],"maxTemp":["16","15","18","21","17","17","17"],"minTemp":["11","10","9","13","12","12","12"],"weatherIcon":[1101,2202,2402,1101,1101,2301,2301]},{"name":"Richmond [NSW]","lat":"-33.600000000","lng":"150.780000000","src":"Bureau of Meteorology","forecastDate":["2024-10-24","2024-10-25","2024-10-26","2024-10-27","2024-10-28","2024-10-29","2024-10-30"],"maxTemp":["25","23","21","25","29","23","25"],"minTemp":["14","11","10","9","11","14","11"],"weatherIcon":[1101,2202,2202,2202,1101,1101,1101]},{"name":"Richmond [TAS]","lat":"-42.730000000","lng":"147.440000000","src":"Bureau of Meteorology","forecastDate":["2024-10-24","2024-10-25","2024-10-26","2024-10-27","2024-10-28","2024-10-29","2024-10-30"],"maxTemp":["15","13","18","20","17","20","19"],"minTemp":["7","5","3","8","8","8","8"],"weatherIcon":[1101,1101,2301,1101,1101,2202,2202]},{"name":"Robe","lat":"-37.160000000","lng":"139.760000000","src":"Bureau of Meteorology","forecastDate":["2024-10-23","2024-10-24","2024-10-25","2024-10-26","2024-10-27","2024-10-28","2024-10-29","2024-10-30"],"maxTemp":["","16","17","21","19","17","18","18"],"minTemp":["","11","11","9","13","12","10","12"],"weatherIcon":[1101,1101,2202,1101,2202,2202,2202,2202]},{"name":"Rockhampton","lat":"-23.380000000","lng":"150.480000000","src":"Bureau of Meteorology","forecastDate":["2024-10-23","2024-10-24","2024-10-25","2024-10-26","2024-10-27","2024-10-28","2024-10-29","2024-10-30"],"maxTemp":["","35","34","31","30","30","32","31"],"minTemp":["","20","21","20","20","20","18","18"],"weatherIcon":[2502,1101,2202,1101,2202,1101,2202,2202]},{"name":"Roebourne","lat":"-20.780000000","lng":"117.150000000","src":"Bureau of Meteorology","forecastDate":["2024-10-23","2024-10-24","2024-10-25","2024-10-26","2024-10-27","2024-10-28","2024-10-29","2024-10-30"],"maxTemp":["","39","40","43","43","39","39","39"],"minTemp":["","23","23","26","28","26","24","25"],"weatherIcon":[2502,2202,2402,2402,2402,2202,2402,2402]},