{"Liverpool":{"name":"Liverpool","lat":"53.497000000","lng":"-3.056000000","isCapital":false,"src":"www.metoffice.gov.uk","srcName":"Met Office","forecastDate":["2023-11-12","2023-11-13","2023-11-14","2023-11-15","2023-11-16"],"maxTemp":["7","12","12","11","10"],"minTemp":["","7","10","10","8"],"weatherIcon":[1401,1201,1201,2101,1201]},"London":{"name":"London","lat":"51.504722000","lng":"-0.131111000","isCapital":true,"src":"www.metoffice.gov.uk","srcName":"Met Office","forecastDate":["2023-11-12","2023-11-13","2023-11-14","2023-11-15","2023-11-16"],"maxTemp":["9","15","14","12","10"],"minTemp":["","8","11","8","6"],"weatherIcon":[2301,1201,2101,2402,2301]},"Londonderry (Derry)":{"name":"Londonderry (Derry)","lat":"55.057000000","lng":"-7.008000000","isCapital":false,"src":"www.metoffice.gov.uk","srcName":"Met Office","forecastDate":["2023-11-12","2023-11-13","2023-11-14","2023-11-15","2023-11-16"],"maxTemp":["9","10","11","10","9"],"minTemp":["","8","8","8","5"],"weatherIcon":[1502,1401,1201,2101,1201]},"Manchester":{"name":"Manchester","lat":"53.350000000","lng":"-2.270000000","isCapital":false,"src":"www.metoffice.gov.uk","srcName":"Met Office","forecastDate":["2023-11-12","2023-11-13","2023-11-14","2023-11-15","2023-11-16"],"maxTemp":["7","12","12","10","9"],"minTemp":["","7","9","9","5"],"weatherIcon":[1401,1201,1201,2101,2301]},"Newcastle":{"name":"Newcastle","lat":"54.980000000","lng":"-1.600000000","isCapital":false,"src":"www.metoffice.gov.uk","srcName":"Met Office","forecastDate":["2023-11-12","2023-11-13","2023-11-14","2023-11-15","2023-11-16"],"maxTemp":["10","11","12","10","9"],"minTemp":["","6","8","7","5"],"weatherIcon":[1401,1502,2101,2301,2101]},"Norwich":{"name":"Norwich","lat":"52.630000000","lng":"1.280000000","isCapital":false,"src":"www.metoffice.gov.uk","srcName":"Met Office","forecastDate":["2023-11-12","2023-11-13","2023-11-14","2023-11-15","2023-11-16"],"maxTemp":["9","14","12","10","9"],"minTemp":["","7","9","8","5"],"weatherIcon":[2301,1201,2301,2402,2301]},"Plymouth":{"name":"Plymouth","lat":"50.354000000","lng":"-4.121000000","isCapital":false,"src":"www.metoffice.gov.uk","srcName":"Met Office","forecastDate":["2023-11-12","2023-11-13","2023-11-14","2023-11-15","2023-11-16"],"maxTemp":["14","15","13","12","12"],"minTemp":["","12","12","9","8"],"weatherIcon":[1502,2101,1201,2301,1201]},"Reading":{"name":"Reading","lat":"51.441000000","lng":"-0.938000000","isCapital":false,"src":"www.metoffice.gov.uk","srcName":"Met Office","forecastDate":["2023-11-12","2023-11-13","2023-11-14","2023-11-15","2023-11-16"],"maxTemp":["9","15","13","11","10"],"minTemp":["","8","10","8","6"],"weatherIcon":[2301,1201,2101,2101,2301]},"Rhayader":{"name":"Rhayader","lat":"52.241000000","lng":"-3.376000000","isCapital":false,"src":"www.metoffice.gov.uk","srcName":"Met Office","forecastDate":["2023-11-12","2023-11-13","2023-11-14","2023-11-15","2023-11-16"],"maxTemp":["8","12","11","9","9"],"minTemp":["","5","9","7","5"],"weatherIcon":[1502,1201,1201,2301,1502]},"Southampton":{"name":"Southampton","lat":"50.901000000","lng":"-1.403000000","isCapital":false,"src":"www.metoffice.gov.uk","srcName":"Met Office","forecastDate":["2023-11-12","2023-11-13","2023-11-14","2023-11-15","2023-11-16"],"maxTemp":["12","15","14","12","11"],"minTemp":["","10","12","10","8"],"weatherIcon":[1502,1201,2301,2301,2301]},"Swansea":{"name":"Swansea","lat":"51.565000000","lng":"-3.981000000","isCapital":false,"src":"www.metoffice.gov.uk","srcName":"Met Office","forecastDate":["2023-11-12","2023-11-13","2023-11-14","2023-11-15","2023-11-16"],"maxTemp":["13","14","13","12","11"],"minTemp":["","11","11","10","8"],"weatherIcon":[1502,1201,901,2301,1201]},"Truro":{"name":"Truro","lat":"50.218000000","lng":"-5.330000000","isCapital":false,"src":"www.metoffice.gov.uk","srcName":"Met Office","forecastDate":["2023-11-12","2023-11-13","2023-11-14","2023-11-15","2023-11-16"],"maxTemp":["15","15","13","12","12"],"minTemp":["","12","11","10","8"],"weatherIcon":[2301,2101,1201,2301,2101]},"Ullapool":{"name":"Ullapool","lat":"57.725000000","lng":"-4.896000000","isCapital":false,"src":"www.metoffice.gov.uk","srcName":"Met Office","forecastDate":["2023-11-12","2023-11-13","2023-11-14","2023-11-15","2023-11-16"],"maxTemp":["6","9","8","8","8"],"minTemp":["","4","7","6","4"],"weatherIcon":[2402,1502,2301,2301,2301]},"Wick":{"name":"Wick","lat":"58.545000000","lng":"-3.089000000","isCapital":false,"src":"www.metoffice.gov.uk","srcName":"Met Office","forecastDate":["2023-11-12","2023-11-13","2023-11-14","2023-11-15","2023-11-16"],"maxTemp":["7","10","9","9","8"],"minTemp":["","6","8","7","5"],"weatherIcon":[2101,1502,2301,2301,2301]},"Abilene, Texas":{"name":"Abilene, Texas","lat":"32.420000000","lng":"-99.680000000","isCapital":false,"src":"www.nws.noaa.gov/","srcName":"National Weather Service","forecastDate":["2023-11-12","2023-11-13","2023-11-14","2023-11-15","2023-11-16","2023-11-17","2023-11-18"],"maxTemp":["19","16","19","22","23","24","23"],"minTemp":["","11","8","8","11","13","12"],"weatherIcon":[2201,1201,2402,2402,2402,2201,1201]},"Agana, Guam":{"name":"Agana, Guam","lat":"13.462700000","lng":"144.743900000","isCapital":false,"src":"www.nws.noaa.gov/","srcName":"National Weather Service","forecastDate":["2023-11-13","2023-11-14","2023-11-15","2023-11-16","2023-11-17","2023-11-18","2023-11-19"],"maxTemp":["32","32","31","30","31","31","31"],"minTemp":["26","26","26","26","26","26","26"],"weatherIcon":[1002,1101,1201,1401,1201,1201,1201]},"Akron, Ohio":{"name":"Akron, Ohio","lat":"40.920000000","lng":"-81.430000000","isCapital":false,"src":"www.nws.noaa.gov/","srcName":"National Weather Service","forecastDate":["2023-11-12","2023-11-13","2023-11-14","2023-11-15","2023-11-16","2023-11-17","2023-11-18"],"maxTemp":["11","14","12","14","16","14","11"],"minTemp":["","1","1","1","3","8","5"],"weatherIcon":[2402,2402,2402,2402,2402,901,1201]},"Albany, New York":{"name":"Albany, New York","lat":"42.650000000","lng":"-73.750000000","isCapital":false,"src":"www.nws.noaa.gov/","srcName":"National Weather Service","forecastDate":["2023-11-12","2023-11-13","2023-11-14","2023-11-15","2023-11-16","2023-11-17","2023-11-18"],"maxTemp":["7","8","8","9","13","15","12"],"minTemp":["","-5","3","-3","1","4","7"],"weatherIcon":[2301,2301,2201,2402,2402,1201,1201]},"Albuquerque, New Mexico":{"name":"Albuquerque, New Mexico","lat":"35.050000000","lng":"-106.620000000","isCapital":false,"src":"www.nws.noaa.gov/","srcName":"National Weather Service","forecastDate":["2023-11-12","2023-11-13","2023-11-14","2023-11-15","2023-11-16","2023-11-17","2023-11-18"],"maxTemp":["17","16","16","18","19","18","16"],"minTemp":["","-1","3","3","5","6","4"],"weatherIcon":[2402,2402,2402,2201,2201,1201,1201]}}