{"Liverpool":{"city":[{"name":"Liverpool","lat":"53.497000000","lng":"-3.056000000","isCapital":false,"src":"www.metoffice.gov.uk","srcName":"Met Office","forecastDate":"2023-11-12","maxTemp":"7","minTemp":"","weatherIcon":1401},{"name":"Liverpool","lat":"53.497000000","lng":"-3.056000000","isCapital":false,"src":"www.metoffice.gov.uk","srcName":"Met Office","forecastDate":"2023-11-13","maxTemp":"12","minTemp":"7","weatherIcon":1201},{"name":"Liverpool","lat":"53.497000000","lng":"-3.056000000","isCapital":false,"src":"www.metoffice.gov.uk","srcName":"Met Office","forecastDate":"2023-11-14","maxTemp":"12","minTemp":"10","weatherIcon":1201},{"name":"Liverpool","lat":"53.497000000","lng":"-3.056000000","isCapital":false,"src":"www.metoffice.gov.uk","srcName":"Met Office","forecastDate":"2023-11-15","maxTemp":"11","minTemp":"10","weatherIcon":2101},{"name":"Liverpool","lat":"53.497000000","lng":"-3.056000000","isCapital":false,"src":"www.metoffice.gov.uk","srcName":"Met Office","forecastDate":"2023-11-16","maxTemp":"10","minTemp":"8","weatherIcon":1201}]},"London":{"city":[{"name":"London","lat":"51.504722000","lng":"-0.131111000","isCapital":true,"src":"www.metoffice.gov.uk","srcName":"Met Office","forecastDate":"2023-11-12","maxTemp":"9","minTemp":"","weatherIcon":2301},{"name":"London","lat":"51.504722000","lng":"-0.131111000","isCapital":true,"src":"www.metoffice.gov.uk","srcName":"Met Office","forecastDate":"2023-11-13","maxTemp":"15","minTemp":"8","weatherIcon":1201},{"name":"London","lat":"51.504722000","lng":"-0.131111000","isCapital":true,"src":"www.metoffice.gov.uk","srcName":"Met Office","forecastDate":"2023-11-14","maxTemp":"14","minTemp":"11","weatherIcon":2101},{"name":"London","lat":"51.504722000","lng":"-0.131111000","isCapital":true,"src":"www.metoffice.gov.uk","srcName":"Met Office","forecastDate":"2023-11-15","maxTemp":"12","minTemp":"8","weatherIcon":2402},{"name":"London","lat":"51.504722000","lng":"-0.131111000","isCapital":true,"src":"www.metoffice.gov.uk","srcName":"Met Office","forecastDate":"2023-11-16","maxTemp":"10","minTemp":"6","weatherIcon":2301}]},"Londonderry (Derry)":{"city":[{"name":"Londonderry (Derry)","lat":"55.057000000","lng":"-7.008000000","isCapital":false,"src":"www.metoffice.gov.uk","srcName":"Met Office","forecastDate":"2023-11-12","maxTemp":"9","minTemp":"","weatherIcon":1502},{"name":"Londonderry (Derry)","lat":"55.057000000","lng":"-7.008000000","isCapital":false,"src":"www.metoffice.gov.uk","srcName":"Met Office","forecastDate":"2023-11-13","maxTemp":"10","minTemp":"8","weatherIcon":1401},{"name":"Londonderry (Derry)","lat":"55.057000000","lng":"-7.008000000","isCapital":false,"src":"www.metoffice.gov.uk","srcName":"Met Office","forecastDate":"2023-11-14","maxTemp":"11","minTemp":"8","weatherIcon":1201},{"name":"Londonderry (Derry)","lat":"55.057000000","lng":"-7.008000000","isCapital":false,"src":"www.metoffice.gov.uk","srcName":"Met Office","forecastDate":"2023-11-15","maxTemp":"10","minTemp":"8","weatherIcon":2101},{"name":"Londonderry (Derry)","lat":"55.057000000","lng":"-7.008000000","isCapital":false,"src":"www.metoffice.gov.uk","srcName":"Met Office","forecastDate":"2023-11-16","maxTemp":"9","minTemp":"5","weatherIcon":1201}]},"Manchester":{"city":[{"name":"Manchester","lat":"53.350000000","lng":"-2.270000000","isCapital":false,"src":"www.metoffice.gov.uk","srcName":"Met Office","forecastDate":"2023-11-12","maxTemp":"7","minTemp":"","weatherIcon":1401},{"name":"Manchester","lat":"53.350000000","lng":"-2.270000000","isCapital":false,"src":"www.metoffice.gov.uk","srcName":"Met Office","forecastDate":"2023-11-13","maxTemp":"12","minTemp":"7","weatherIcon":1201},{"name":"Manchester","lat":"53.350000000","lng":"-2.270000000","isCapital":false,"src":"www.metoffice.gov.uk","srcName":"Met Office","forecastDate":"2023-11-14","maxTemp":"12","minTemp":"9","weatherIcon":1201},{"name":"Manchester","lat":"53.350000000","lng":"-2.270000000","isCapital":false,"src":"www.metoffice.gov.uk","srcName":"Met Office","forecastDate":"2023-11-15","maxTemp":"10","minTemp":"9","weatherIcon":2101},{"name":"Manchester","lat":"53.350000000","lng":"-2.270000000","isCapital":false,"src":"www.metoffice.gov.uk","srcName":"Met Office","forecastDate":"2023-11-16","maxTemp":"9","minTemp":"5","weatherIcon":2301}]},"Newcastle":{"city":[{"name":"Newcastle","lat":"54.980000000","lng":"-1.600000000","isCapital":false,"src":"www.metoffice.gov.uk","srcName":"Met Office","forecastDate":"2023-11-12","maxTemp":"10","minTemp":"","weatherIcon":1401},{"name":"Newcastle","lat":"54.980000000","lng":"-1.600000000","isCapital":false,"src":"www.metoffice.gov.uk","srcName":"Met Office","forecastDate":"2023-11-13","maxTemp":"11","minTemp":"6","weatherIcon":1502},{"name":"Newcastle","lat":"54.980000000","lng":"-1.600000000","isCapital":false,"src":"www.metoffice.gov.uk","srcName":"Met Office","forecastDate":"2023-11-14","maxTemp":"12","minTemp":"8","weatherIcon":2101},{"name":"Newcastle","lat":"54.980000000","lng":"-1.600000000","isCapital":false,"src":"www.metoffice.gov.uk","srcName":"Met Office","forecastDate":"2023-11-15","maxTemp":"10","minTemp":"7","weatherIcon":2301},{"name":"Newcastle","lat":"54.980000000","lng":"-1.600000000","isCapital":false,"src":"www.metoffice.gov.uk","srcName":"Met Office","forecastDate":"2023-11-16","maxTemp":"9","minTemp":"5","weatherIcon":2101}]},"Norwich":{"city":[{"name":"Norwich","lat":"52.630000000","lng":"1.280000000","isCapital":false,"src":"www.metoffice.gov.uk","srcName":"Met Office","forecastDate":"2023-11-12","maxTemp":"9","minTemp":"","weatherIcon":2301},{"name":"Norwich","lat":"52.630000000","lng":"1.280000000","isCapital":false,"src":"www.metoffice.gov.uk","srcName":"Met Office","forecastDate":"2023-11-13","maxTemp":"14","minTemp":"7","weatherIcon":1201},{"name":"Norwich","lat":"52.630000000","lng":"1.280000000","isCapital":false,"src":"www.metoffice.gov.uk","srcName":"Met Office","forecastDate":"2023-11-14","maxTemp":"12","minTemp":"9","weatherIcon":2301},{"name":"Norwich","lat":"52.630000000","lng":"1.280000000","isCapital":false,"src":"www.metoffice.gov.uk","srcName":"Met Office","forecastDate":"2023-11-15","maxTemp":"10","minTemp":"8","weatherIcon":2402},{"name":"Norwich","lat":"52.630000000","lng":"1.280000000","isCapital":false,"src":"www.metoffice.gov.uk","srcName":"Met Office","forecastDate":"2023-11-16","maxTemp":"9","minTemp":"5","weatherIcon":2301}]},"Plymouth":{"city":[{"name":"Plymouth","lat":"50.354000000","lng":"-4.121000000","isCapital":false,"src":"www.metoffice.gov.uk","srcName":"Met Office","forecastDate":"2023-11-12","maxTemp":"14","minTemp":"","weatherIcon":1502},{"name":"Plymouth","lat":"50.354000000","lng":"-4.121000000","isCapital":false,"src":"www.metoffice.gov.uk","srcName":"Met Office","forecastDate":"2023-11-13","maxTemp":"15","minTemp":"12","weatherIcon":2101},{"name":"Plymouth","lat":"50.354000000","lng":"-4.121000000","isCapital":false,"src":"www.metoffice.gov.uk","srcName":"Met Office","forecastDate":"2023-11-14","maxTemp":"13","minTemp":"12","weatherIcon":1201},{"name":"Plymouth","lat":"50.354000000","lng":"-4.121000000","isCapital":false,"src":"www.metoffice.gov.uk","srcName":"Met Office","forecastDate":"2023-11-15","maxTemp":"12","minTemp":"9","weatherIcon":2301},{"name":"Plymouth","lat":"50.354000000","lng":"-4.121000000","isCapital":false,"src":"www.metoffice.gov.uk","srcName":"Met Office","forecastDate":"2023-11-16","maxTemp":"12","minTemp":"8","weatherIcon":1201}]},"Reading":{"city":[{"name":"Reading","lat":"51.441000000","lng":"-0.938000000","isCapital":false,"src":"www.metoffice.gov.uk","srcName":"Met Office","forecastDate":"2023-11-12","maxTemp":"9","minTemp":"","weatherIcon":2301},{"name":"Reading","lat":"51.441000000","lng":"-0.938000000","isCapital":false,"src":"www.metoffice.gov.uk","srcName":"Met Office","forecastDate":"2023-11-13","maxTemp":"15","minTemp":"8","weatherIcon":1201},{"name":"Reading","lat":"51.441000000","lng":"-0.938000000","isCapital":false,"src":"www.metoffice.gov.uk","srcName":"Met Office","forecastDate":"2023-11-14","maxTemp":"13","minTemp":"10","weatherIcon":2101},{"name":"Reading","lat":"51.441000000","lng":"-0.938000000","isCapital":false,"src":"www.metoffice.gov.uk","srcName":"Met Office","forecastDate":"2023-11-15","maxTemp":"11","minTemp":"8","weatherIcon":2101},{"name":"Reading","lat":"51.441000000","lng":"-0.938000000","isCapital":false,"src":"www.metoffice.gov.uk","srcName":"Met Office","forecastDate":"2023-11-16","maxTemp":"10","minTemp":"6","weatherIcon":2301}]},"Rhayader":{"city":[{"name":"Rhayader","lat":"52.241000000","lng":"-3.376000000","isCapital":false,"src":"www.metoffice.gov.uk","srcName":"Met Office","forecastDate":"2023-11-12","maxTemp":"8","minTemp":"","weatherIcon":1502},{"name":"Rhayader","lat":"52.241000000","lng":"-3.376000000","isCapital":false,"src":"www.metoffice.gov.uk","srcName":"Met Office","forecastDate":"2023-11-13","maxTemp":"12","minTemp":"5","weatherIcon":1201},{"name":"Rhayader","lat":"52.241000000","lng":"-3.376000000","isCapital":false,"src":"www.metoffice.gov.uk","srcName":"Met Office","forecastDate":"2023-11-14","maxTemp":"11","minTemp":"9","weatherIcon":1201},{"name":"Rhayader","lat":"52.241000000","lng":"-3.376000000","isCapital":false,"src":"www.metoffice.gov.uk","srcName":"Met Office","forecastDate":"2023-11-15","maxTemp":"9","minTemp":"7","weatherIcon":2301},{"name":"Rhayader","lat":"52.241000000","lng":"-3.376000000","isCapital":false,"src":"www.metoffice.gov.uk","srcName":"Met Office","forecastDate":"2023-11-16","maxTemp":"9","minTemp":"5","weatherIcon":1502}]},"Southampton":{"city":[{"name":"Southampton","lat":"50.901000000","lng":"-1.403000000","isCapital":false,"src":"www.metoffice.gov.uk","srcName":"Met Office","forecastDate":"2023-11-12","maxTemp":"12","minTemp":"","weatherIcon":1502},{"name":"Southampton","lat":"50.901000000","lng":"-1.403000000","isCapital":false,"src":"www.metoffice.gov.uk","srcName":"Met Office","forecastDate":"2023-11-13","maxTemp":"15","minTemp":"10","weatherIcon":1201},{"name":"Southampton","lat":"50.901000000","lng":"-1.403000000","isCapital":false,"src":"www.metoffice.gov.uk","srcName":"Met Office","forecastDate":"2023-11-14","maxTemp":"14","minTemp":"12","weatherIcon":2301},{"name":"Southampton","lat":"50.901000000","lng":"-1.403000000","isCapital":false,"src":"www.metoffice.gov.uk","srcName":"Met Office","forecastDate":"2023-11-15","maxTemp":"12","minTemp":"10","weatherIcon":2301},{"name":"Southampton","lat":"50.901000000","lng":"-1.403000000","isCapital":false,"src":"www.metoffice.gov.uk","srcName":"Met Office","forecastDate":"2023-11-16","maxTemp":"11","minTemp":"8","weatherIcon":2301}]},"Swansea":{"city":[{"name":"Swansea","lat":"51.565000000","lng":"-3.981000000","isCapital":false,"src":"www.metoffice.gov.uk","srcName":"Met Office","forecastDate":"2023-11-12","maxTemp":"13","minTemp":"","weatherIcon":1502},{"name":"Swansea","lat":"51.565000000","lng":"-3.981000000","isCapital":false,"src":"www.metoffice.gov.uk","srcName":"Met Office","forecastDate":"2023-11-13","maxTemp":"14","minTemp":"11","weatherIcon":1201},{"name":"Swansea","lat":"51.565000000","lng":"-3.981000000","isCapital":false,"src":"www.metoffice.gov.uk","srcName":"Met Office","forecastDate":"2023-11-14","maxTemp":"13","minTemp":"11","weatherIcon":901},{"name":"Swansea","lat":"51.565000000","lng":"-3.981000000","isCapital":false,"src":"www.metoffice.gov.uk","srcName":"Met Office","forecastDate":"2023-11-15","maxTemp":"12","minTemp":"10","weatherIcon":2301},{"name":"Swansea","lat":"51.565000000","lng":"-3.981000000","isCapital":false,"src":"www.metoffice.gov.uk","srcName":"Met Office","forecastDate":"2023-11-16","maxTemp":"11","minTemp":"8","weatherIcon":1201}]},"Truro":{"city":[{"name":"Truro","lat":"50.218000000","lng":"-5.330000000","isCapital":false,"src":"www.metoffice.gov.uk","srcName":"Met Office","forecastDate":"2023-11-12","maxTemp":"15","minTemp":"","weatherIcon":2301},{"name":"Truro","lat":"50.218000000","lng":"-5.330000000","isCapital":false,"src":"www.metoffice.gov.uk","srcName":"Met Office","forecastDate":"2023-11-13","maxTemp":"15","minTemp":"12","weatherIcon":2101},{"name":"Truro","lat":"50.218000000","lng":"-5.330000000","isCapital":false,"src":"www.metoffice.gov.uk","srcName":"Met Office","forecastDate":"2023-11-14","maxTemp":"13","minTemp":"11","weatherIcon":1201},{"name":"Truro","lat":"50.218000000","lng":"-5.330000000","isCapital":false,"src":"www.metoffice.gov.uk","srcName":"Met Office","forecastDate":"2023-11-15","maxTemp":"12","minTemp":"10","weatherIcon":2301},{"name":"Truro","lat":"50.218000000","lng":"-5.330000000","isCapital":false,"src":"www.metoffice.gov.uk","srcName":"Met Office","forecastDate":"2023-11-16","maxTemp":"12","minTemp":"8","weatherIcon":2101}]},"Ullapool":{"city":[{"name":"Ullapool","lat":"57.725000000","lng":"-4.896000000","isCapital":false,"src":"www.metoffice.gov.uk","srcName":"Met Office","forecastDate":"2023-11-12","maxTemp":"6","minTemp":"","weatherIcon":2402},{"name":"Ullapool","lat":"57.725000000","lng":"-4.896000000","isCapital":false,"src":"www.metoffice.gov.uk","srcName":"Met Office","forecastDate":"2023-11-13","maxTemp":"9","minTemp":"4","weatherIcon":1502},{"name":"Ullapool","lat":"57.725000000","lng":"-4.896000000","isCapital":false,"src":"www.metoffice.gov.uk","srcName":"Met Office","forecastDate":"2023-11-14","maxTemp":"8","minTemp":"7","weatherIcon":2301},{"name":"Ullapool","lat":"57.725000000","lng":"-4.896000000","isCapital":false,"src":"www.metoffice.gov.uk","srcName":"Met Office","forecastDate":"2023-11-15","maxTemp":"8","minTemp":"6","weatherIcon":2301},{"name":"Ullapool","lat":"57.725000000","lng":"-4.896000000","isCapital":false,"src":"www.metoffice.gov.uk","srcName":"Met Office","forecastDate":"2023-11-16","maxTemp":"8","minTemp":"4","weatherIcon":2301}]},"Wick":{"city":[{"name":"Wick","lat":"58.545000000","lng":"-3.089000000","isCapital":false,"src":"www.metoffice.gov.uk","srcName":"Met Office","forecastDate":"2023-11-12","maxTemp":"7","minTemp":"","weatherIcon":2101},{"name":"Wick","lat":"58.545000000","lng":"-3.089000000","isCapital":false,"src":"www.metoffice.gov.uk","srcName":"Met Office","forecastDate":"2023-11-13","maxTemp":"10","minTemp":"6","weatherIcon":1502},{"name":"Wick","lat":"58.545000000","lng":"-3.089000000","isCapital":false,"src":"www.metoffice.gov.uk","srcName":"Met Office","forecastDate":"2023-11-14","maxTemp":"9","minTemp":"8","weatherIcon":2301},{"name":"Wick","lat":"58.545000000","lng":"-3.089000000","isCapital":false,"src":"www.metoffice.gov.uk","srcName":"Met Office","forecastDate":"2023-11-15","maxTemp":"9","minTemp":"7","weatherIcon":2301},{"name":"Wick","lat":"58.545000000","lng":"-3.089000000","isCapital":false,"src":"www.metoffice.gov.uk","srcName":"Met Office","forecastDate":"2023-11-16","maxTemp":"8","minTemp":"5","weatherIcon":2301}]},"Abilene, Texas":{"city":[{"name":"Abilene, Texas","lat":"32.420000000","lng":"-99.680000000","isCapital":false,"src":"www.nws.noaa.gov/","srcName":"National Weather Service","forecastDate":"2023-11-12","maxTemp":"19","minTemp":"","weatherIcon":2201},{"name":"Abilene, Texas","lat":"32.420000000","lng":"-99.680000000","isCapital":false,"src":"www.nws.noaa.gov/","srcName":"National Weather Service","forecastDate":"2023-11-13","maxTemp":"16","minTemp":"11","weatherIcon":1201},{"name":"Abilene, Texas","lat":"32.420000000","lng":"-99.680000000","isCapital":false,"src":"www.nws.noaa.gov/","srcName":"National Weather Service","forecastDate":"2023-11-14","maxTemp":"19","minTemp":"8","weatherIcon":2402},{"name":"Abilene, Texas","lat":"32.420000000","lng":"-99.680000000","isCapital":false,"src":"www.nws.noaa.gov/","srcName":"National Weather Service","forecastDate":"2023-11-15","maxTemp":"22","minTemp":"8","weatherIcon":2402},{"name":"Abilene, Texas","lat":"32.420000000","lng":"-99.680000000","isCapital":false,"src":"www.nws.noaa.gov/","srcName":"National Weather Service","forecastDate":"2023-11-16","maxTemp":"23","minTemp":"11","weatherIcon":2402},{"name":"Abilene, Texas","lat":"32.420000000","lng":"-99.680000000","isCapital":false,"src":"www.nws.noaa.gov/","srcName":"National Weather Service","forecastDate":"2023-11-17","maxTemp":"24","minTemp":"13","weatherIcon":2201},{"name":"Abilene, Texas","lat":"32.420000000","lng":"-99.680000000","isCapital":false,"src":"www.nws.noaa.gov/","srcName":"National Weather Service","forecastDate":"2023-11-18","maxTemp":"23","minTemp":"12","weatherIcon":1201}]},"Agana, Guam":{"city":[{"name":"Agana, Guam","lat":"13.462700000","lng":"144.743900000","isCapital":false,"src":"www.nws.noaa.gov/","srcName":"National Weather Service","forecastDate":"2023-11-13","maxTemp":"32","minTemp":"26","weatherIcon":1002},{"name":"Agana, Guam","lat":"13.462700000","lng":"144.743900000","isCapital":false,"src":"www.nws.noaa.gov/","srcName":"National Weather Service","forecastDate":"2023-11-14","maxTemp":"32","minTemp":"26","weatherIcon":1101},{"name":"Agana, Guam","lat":"13.462700000","lng":"144.743900000","isCapital":false,"src":"www.nws.noaa.gov/","srcName":"National Weather Service","forecastDate":"2023-11-15","maxTemp":"31","minTemp":"26","weatherIcon":1201},{"name":"Agana, Guam","lat":"13.462700000","lng":"144.743900000","isCapital":false,"src":"www.nws.noaa.gov/","srcName":"National Weather Service","forecastDate":"2023-11-16","maxTemp":"30","minTemp":"26","weatherIcon":1401},{"name":"Agana, Guam","lat":"13.462700000","lng":"144.743900000","isCapital":false,"src":"www.nws.noaa.gov/","srcName":"National Weather Service","forecastDate":"2023-11-17","maxTemp":"31","minTemp":"26","weatherIcon":1201},{"name":"Agana, Guam","lat":"13.462700000","lng":"144.743900000","isCapital":false,"src":"www.nws.noaa.gov/","srcName":"National Weather Service","forecastDate":"2023-11-18","maxTemp":"31","minTemp":"26","weatherIcon":1201},{"name":"Agana, Guam","lat":"13.462700000","lng":"144.743900000","isCapital":false,"src":"www.nws.noaa.gov/","srcName":"National Weather Service","forecastDate":"2023-11-19","maxTemp":"31","minTemp":"26","weatherIcon":1201}]},"Akron, Ohio":{"city":[{"name":"Akron, Ohio","lat":"40.920000000","lng":"-81.430000000","isCapital":false,"src":"www.nws.noaa.gov/","srcName":"National Weather Service","forecastDate":"2023-11-12","maxTemp":"11","minTemp":"","weatherIcon":2402},{"name":"Akron, Ohio","lat":"40.920000000","lng":"-81.430000000","isCapital":false,"src":"www.nws.noaa.gov/","srcName":"National Weather Service","forecastDate":"2023-11-13","maxTemp":"14","minTemp":"1","weatherIcon":2402},{"name":"Akron, Ohio","lat":"40.920000000","lng":"-81.430000000","isCapital":false,"src":"www.nws.noaa.gov/","srcName":"National Weather Service","forecastDate":"2023-11-14","maxTemp":"12","minTemp":"1","weatherIcon":2402},{"name":"Akron, Ohio","lat":"40.920000000","lng":"-81.430000000","isCapital":false,"src":"www.nws.noaa.gov/","srcName":"National Weather Service","forecastDate":"2023-11-15","maxTemp":"14","minTemp":"1","weatherIcon":2402},{"name":"Akron, Ohio","lat":"40.920000000","lng":"-81.430000000","isCapital":false,"src":"www.nws.noaa.gov/","srcName":"National Weather Service","forecastDate":"2023-11-16","maxTemp":"16","minTemp":"3","weatherIcon":2402},{"name":"Akron, Ohio","lat":"40.920000000","lng":"-81.430000000","isCapital":false,"src":"www.nws.noaa.gov/","srcName":"National Weather Service","forecastDate":"2023-11-17","maxTemp":"14","minTemp":"8","weatherIcon":901},{"name":"Akron, Ohio","lat":"40.920000000","lng":"-81.430000000","isCapital":false,"src":"www.nws.noaa.gov/","srcName":"National Weather Service","forecastDate":"2023-11-18","maxTemp":"11","minTemp":"5","weatherIcon":1201}]},"Albany, New York":{"city":[{"name":"Albany, New York","lat":"42.650000000","lng":"-73.750000000","isCapital":false,"src":"www.nws.noaa.gov/","srcName":"National Weather Service","forecastDate":"2023-11-12","maxTemp":"7","minTemp":"","weatherIcon":2301},{"name":"Albany, New York","lat":"42.650000000","lng":"-73.750000000","isCapital":false,"src":"www.nws.noaa.gov/","srcName":"National Weather Service","forecastDate":"2023-11-13","maxTemp":"8","minTemp":"-5","weatherIcon":2301},{"name":"Albany, New York","lat":"42.650000000","lng":"-73.750000000","isCapital":false,"src":"www.nws.noaa.gov/","srcName":"National Weather Service","forecastDate":"2023-11-14","maxTemp":"8","minTemp":"3","weatherIcon":2201},{"name":"Albany, New York","lat":"42.650000000","lng":"-73.750000000","isCapital":false,"src":"www.nws.noaa.gov/","srcName":"National Weather Service","forecastDate":"2023-11-15","maxTemp":"9","minTemp":"-3","weatherIcon":2402},{"name":"Albany, New York","lat":"42.650000000","lng":"-73.750000000","isCapital":false,"src":"www.nws.noaa.gov/","srcName":"National Weather Service","forecastDate":"2023-11-16","maxTemp":"13","minTemp":"1","weatherIcon":2402},{"name":"Albany, New York","lat":"42.650000000","lng":"-73.750000000","isCapital":false,"src":"www.nws.noaa.gov/","srcName":"National Weather Service","forecastDate":"2023-11-17","maxTemp":"15","minTemp":"4","weatherIcon":1201},{"name":"Albany, New York","lat":"42.650000000","lng":"-73.750000000","isCapital":false,"src":"www.nws.noaa.gov/","srcName":"National Weather Service","forecastDate":"2023-11-18","maxTemp":"12","minTemp":"7","weatherIcon":1201}]},"Albuquerque, New Mexico":{"city":[{"name":"Albuquerque, New Mexico","lat":"35.050000000","lng":"-106.620000000","isCapital":false,"src":"www.nws.noaa.gov/","srcName":"National Weather Service","forecastDate":"2023-11-12","maxTemp":"17","minTemp":"","weatherIcon":2402},{"name":"Albuquerque, New Mexico","lat":"35.050000000","lng":"-106.620000000","isCapital":false,"src":"www.nws.noaa.gov/","srcName":"National Weather Service","forecastDate":"2023-11-13","maxTemp":"16","minTemp":"-1","weatherIcon":2402},{"name":"Albuquerque, New Mexico","lat":"35.050000000","lng":"-106.620000000","isCapital":false,"src":"www.nws.noaa.gov/","srcName":"National Weather Service","forecastDate":"2023-11-14","maxTemp":"16","minTemp":"3","weatherIcon":2402},{"name":"Albuquerque, New Mexico","lat":"35.050000000","lng":"-106.620000000","isCapital":false,"src":"www.nws.noaa.gov/","srcName":"National Weather Service","forecastDate":"2023-11-15","maxTemp":"18","minTemp":"3","weatherIcon":2201},{"name":"Albuquerque, New Mexico","lat":"35.050000000","lng":"-106.620000000","isCapital":false,"src":"www.nws.noaa.gov/","srcName":"National Weather Service","forecastDate":"2023-11-16","maxTemp":"19","minTemp":"5","weatherIcon":2201},{"name":"Albuquerque, New Mexico","lat":"35.050000000","lng":"-106.620000000","isCapital":false,"src":"www.nws.noaa.gov/","srcName":"National Weather Service","forecastDate":"2023-11-17","maxTemp":"18","minTemp":"6","weatherIcon":1201},{"name":"Albuquerque, New Mexico","lat":"35.050000000","lng":"-106.620000000","isCapital":false,"src":"www.nws.noaa.gov/","srcName":"National Weather Service","forecastDate":"2023-11-18","maxTemp":"16","minTemp":"4","weatherIcon":1201}]}}