{"Algiers":{"city":[{"name":"Algiers","lat":"36.700000000","lng":"3.220000000","isCapital":true,"src":"www.meteo.dz","srcName":"National Meteorological Office","forecastDay":[{"forecastDate":"2023-11-12","maxTemp":"23","minTemp":"11","weatherIcon":2402}]},{"name":"Algiers","lat":"36.700000000","lng":"3.220000000","isCapital":true,"src":"www.meteo.dz","srcName":"National Meteorological Office","forecastDay":[{"forecastDate":"2023-11-13","maxTemp":"24","minTemp":"10","weatherIcon":2402}]},{"name":"Algiers","lat":"36.700000000","lng":"3.220000000","isCapital":true,"src":"www.meteo.dz","srcName":"National Meteorological Office","forecastDay":[{"forecastDate":"2023-11-14","maxTemp":"24","minTemp":"11","weatherIcon":2402}]}]},"Annaba":{"city":[{"name":"Annaba","lat":"36.900000000","lng":"7.760000000","isCapital":false,"src":"www.meteo.dz","srcName":"National Meteorological Office","forecastDay":[{"forecastDate":"2023-11-12","maxTemp":"22","minTemp":"10","weatherIcon":2402}]},{"name":"Annaba","lat":"36.900000000","lng":"7.760000000","isCapital":false,"src":"www.meteo.dz","srcName":"National Meteorological Office","forecastDay":[{"forecastDate":"2023-11-13","maxTemp":"23","minTemp":"11","weatherIcon":2402}]},{"name":"Annaba","lat":"36.900000000","lng":"7.760000000","isCapital":false,"src":"www.meteo.dz","srcName":"National Meteorological Office","forecastDay":[{"forecastDate":"2023-11-14","maxTemp":"24","minTemp":"10","weatherIcon":2402}]}]},"Bechar":{"city":[{"name":"Bechar","lat":"31.610000000","lng":"-2.220000000","isCapital":false,"src":"www.meteo.dz","srcName":"National Meteorological Office","forecastDay":[{"forecastDate":"2023-11-12","maxTemp":"25","minTemp":"10","weatherIcon":2402}]},{"name":"Bechar","lat":"31.610000000","lng":"-2.220000000","isCapital":false,"src":"www.meteo.dz","srcName":"National Meteorological Office","forecastDay":[{"forecastDate":"2023-11-13","maxTemp":"24","minTemp":"11","weatherIcon":2402}]},{"name":"Bechar","lat":"31.610000000","lng":"-2.220000000","isCapital":false,"src":"www.meteo.dz","srcName":"National Meteorological Office","forecastDay":[{"forecastDate":"2023-11-14","maxTemp":"23","minTemp":"10","weatherIcon":2402}]}]},"Biskra":{"city":[{"name":"Biskra","lat":"34.860000000","lng":"5.730000000","isCapital":false,"src":"www.meteo.dz","srcName":"National Meteorological Office","forecastDay":[{"forecastDate":"2023-11-12","maxTemp":"25","minTemp":"11","weatherIcon":2402}]},{"name":"Biskra","lat":"34.860000000","lng":"5.730000000","isCapital":false,"src":"www.meteo.dz","srcName":"National Meteorological Office","forecastDay":[{"forecastDate":"2023-11-13","maxTemp":"24","minTemp":"10","weatherIcon":2402}]},{"name":"Biskra","lat":"34.860000000","lng":"5.730000000","isCapital":false,"src":"www.meteo.dz","srcName":"National Meteorological Office","forecastDay":[{"forecastDate":"2023-11-14","maxTemp":"23","minTemp":"11","weatherIcon":2402}]}]},"Constantine":{"city":[{"name":"Constantine","lat":"36.360000000","lng":"6.610000000","isCapital":false,"src":"www.meteo.dz","srcName":"National Meteorological Office","forecastDay":[{"forecastDate":"2023-11-12","maxTemp":"23","minTemp":"11","weatherIcon":2402}]},{"name":"Constantine","lat":"36.360000000","lng":"6.610000000","isCapital":false,"src":"www.meteo.dz","srcName":"National Meteorological Office","forecastDay":[{"forecastDate":"2023-11-13","maxTemp":"23","minTemp":"10","weatherIcon":2402}]},{"name":"Constantine","lat":"36.360000000","lng":"6.610000000","isCapital":false,"src":"www.meteo.dz","srcName":"National Meteorological Office","forecastDay":[{"forecastDate":"2023-11-14","maxTemp":"24","minTemp":"11","weatherIcon":2402}]}]},"Djanet":{"city":[{"name":"Djanet","lat":"24.550000000","lng":"9.480000000","isCapital":false,"src":"www.meteo.dz","srcName":"National Meteorological Office","forecastDay":[{"forecastDate":"2023-11-12","maxTemp":"25","minTemp":"10","weatherIcon":2402}]},{"name":"Djanet","lat":"24.550000000","lng":"9.480000000","isCapital":false,"src":"www.meteo.dz","srcName":"National Meteorological Office","forecastDay":[{"forecastDate":"2023-11-13","maxTemp":"24","minTemp":"11","weatherIcon":2402}]},{"name":"Djanet","lat":"24.550000000","lng":"9.480000000","isCapital":false,"src":"www.meteo.dz","srcName":"National Meteorological Office","forecastDay":[{"forecastDate":"2023-11-14","maxTemp":"23","minTemp":"11","weatherIcon":2402}]}]},"Djelfa":{"city":[{"name":"Djelfa","lat":"34.680000000","lng":"3.250000000","isCapital":false,"src":"www.meteo.dz","srcName":"National Meteorological Office","forecastDay":[{"forecastDate":"2023-11-12","maxTemp":"23","minTemp":"11","weatherIcon":2402}]},{"name":"Djelfa","lat":"34.680000000","lng":"3.250000000","isCapital":false,"src":"www.meteo.dz","srcName":"National Meteorological Office","forecastDay":[{"forecastDate":"2023-11-13","maxTemp":"24","minTemp":"10","weatherIcon":2402}]},{"name":"Djelfa","lat":"34.680000000","lng":"3.250000000","isCapital":false,"src":"www.meteo.dz","srcName":"National Meteorological Office","forecastDay":[{"forecastDate":"2023-11-14","maxTemp":"23","minTemp":"11","weatherIcon":2402}]}]},"Ghardaia":{"city":[{"name":"Ghardaia","lat":"32.490000000","lng":"3.680000000","isCapital":false,"src":"www.meteo.dz","srcName":"National Meteorological Office","forecastDay":[{"forecastDate":"2023-11-12","maxTemp":"26","minTemp":"10","weatherIcon":2402}]},{"name":"Ghardaia","lat":"32.490000000","lng":"3.680000000","isCapital":false,"src":"www.meteo.dz","srcName":"National Meteorological Office","forecastDay":[{"forecastDate":"2023-11-13","maxTemp":"25","minTemp":"11","weatherIcon":2402}]},{"name":"Ghardaia","lat":"32.490000000","lng":"3.680000000","isCapital":false,"src":"www.meteo.dz","srcName":"National Meteorological Office","forecastDay":[{"forecastDate":"2023-11-14","maxTemp":"24","minTemp":"11","weatherIcon":2402}]}]},"Oran":{"city":[{"name":"Oran","lat":"35.710000000","lng":"-0.640000000","isCapital":false,"src":"www.meteo.dz","srcName":"National Meteorological Office","forecastDay":[{"forecastDate":"2023-11-12","maxTemp":"22","minTemp":"11","weatherIcon":2402}]},{"name":"Oran","lat":"35.710000000","lng":"-0.640000000","isCapital":false,"src":"www.meteo.dz","srcName":"National Meteorological Office","forecastDay":[{"forecastDate":"2023-11-13","maxTemp":"21","minTemp":"10","weatherIcon":2402}]},{"name":"Oran","lat":"35.710000000","lng":"-0.640000000","isCapital":false,"src":"www.meteo.dz","srcName":"National Meteorological Office","forecastDay":[{"forecastDate":"2023-11-14","maxTemp":"22","minTemp":"11","weatherIcon":2402}]}]},"Setif":{"city":[{"name":"Setif","lat":"36.190000000","lng":"5.410000000","isCapital":false,"src":"www.meteo.dz","srcName":"National Meteorological Office","forecastDay":[{"forecastDate":"2023-11-12","maxTemp":"11","minTemp":"11","weatherIcon":2402}]},{"name":"Setif","lat":"36.190000000","lng":"5.410000000","isCapital":false,"src":"www.meteo.dz","srcName":"National Meteorological Office","forecastDay":[{"forecastDate":"2023-11-13","maxTemp":"10","minTemp":"10","weatherIcon":2402}]},{"name":"Setif","lat":"36.190000000","lng":"5.410000000","isCapital":false,"src":"www.meteo.dz","srcName":"National Meteorological Office","forecastDay":[{"forecastDate":"2023-11-14","maxTemp":"12","minTemp":"9","weatherIcon":2402}]}]},"Tamanrasset":{"city":[{"name":"Tamanrasset","lat":"22.790000000","lng":"5.530000000","isCapital":false,"src":"www.meteo.dz","srcName":"National Meteorological Office","forecastDay":[{"forecastDate":"2023-11-12","maxTemp":"24","minTemp":"10","weatherIcon":2402}]},{"name":"Tamanrasset","lat":"22.790000000","lng":"5.530000000","isCapital":false,"src":"www.meteo.dz","srcName":"National Meteorological Office","forecastDay":[{"forecastDate":"2023-11-13","maxTemp":"23","minTemp":"11","weatherIcon":2402}]},{"name":"Tamanrasset","lat":"22.790000000","lng":"5.530000000","isCapital":false,"src":"www.meteo.dz","srcName":"National Meteorological Office","forecastDay":[{"forecastDate":"2023-11-14","maxTemp":"23","minTemp":"11","weatherIcon":2402}]}]},"Tlemcen":{"city":[{"name":"Tlemcen","lat":"34.800000000","lng":"-1.430000000","isCapital":false,"src":"www.meteo.dz","srcName":"National Meteorological Office","forecastDay":[{"forecastDate":"2023-11-12","maxTemp":"19","minTemp":"11","weatherIcon":2402}]},{"name":"Tlemcen","lat":"34.800000000","lng":"-1.430000000","isCapital":false,"src":"www.meteo.dz","srcName":"National Meteorological Office","forecastDay":[{"forecastDate":"2023-11-13","maxTemp":"19","minTemp":"10","weatherIcon":2402}]},{"name":"Tlemcen","lat":"34.800000000","lng":"-1.430000000","isCapital":false,"src":"www.meteo.dz","srcName":"National Meteorological Office","forecastDay":[{"forecastDate":"2023-11-14","maxTemp":"20","minTemp":"11","weatherIcon":2402}]}]},"Bariloche":{"city":[{"name":"Bariloche","lat":"-41.150000000","lng":"-71.170000000","isCapital":false,"src":"www.smn.gov.ar","srcName":"Servicio Meteorol\u00f3gico Nacional","forecastDay":[{"forecastDate":"2023-11-12","maxTemp":"8","minTemp":"0","weatherIcon":801}]},{"name":"Bariloche","lat":"-41.150000000","lng":"-71.170000000","isCapital":false,"src":"www.smn.gov.ar","srcName":"Servicio Meteorol\u00f3gico Nacional","forecastDay":[{"forecastDate":"2023-11-13","maxTemp":"6","minTemp":"0","weatherIcon":801}]},{"name":"Bariloche","lat":"-41.150000000","lng":"-71.170000000","isCapital":false,"src":"www.smn.gov.ar","srcName":"Servicio Meteorol\u00f3gico Nacional","forecastDay":[{"forecastDate":"2023-11-14","maxTemp":"7","minTemp":"2","weatherIcon":1502}]},{"name":"Bariloche","lat":"-41.150000000","lng":"-71.170000000","isCapital":false,"src":"www.smn.gov.ar","srcName":"Servicio Meteorol\u00f3gico Nacional","forecastDay":[{"forecastDate":"2023-11-15","maxTemp":"7","minTemp":"2","weatherIcon":1502}]},{"name":"Bariloche","lat":"-41.150000000","lng":"-71.170000000","isCapital":false,"src":"www.smn.gov.ar","srcName":"Servicio Meteorol\u00f3gico Nacional","forecastDay":[{"forecastDate":"2023-11-16","maxTemp":"6","minTemp":"1","weatherIcon":801}]},{"name":"Bariloche","lat":"-41.150000000","lng":"-71.170000000","isCapital":false,"src":"www.smn.gov.ar","srcName":"Servicio Meteorol\u00f3gico Nacional","forecastDay":[{"forecastDate":"2023-11-17","maxTemp":"1","minTemp":"-3","weatherIcon":801}]},{"name":"Bariloche","lat":"-41.150000000","lng":"-71.170000000","isCapital":false,"src":"www.smn.gov.ar","srcName":"Servicio Meteorol\u00f3gico Nacional","forecastDay":[{"forecastDate":"2023-11-18","maxTemp":"5","minTemp":"-3","weatherIcon":801}]}]},"Buenos Aires":{"city":[{"name":"Buenos Aires","lat":"-34.580000000","lng":"-58.480000000","isCapital":true,"src":"www.smn.gov.ar","srcName":"Servicio Meteorol\u00f3gico Nacional","forecastDay":[{"forecastDate":"2023-11-12","maxTemp":"24","minTemp":"16","weatherIcon":1501}]},{"name":"Buenos Aires","lat":"-34.580000000","lng":"-58.480000000","isCapital":true,"src":"www.smn.gov.ar","srcName":"Servicio Meteorol\u00f3gico Nacional","forecastDay":[{"forecastDate":"2023-11-13","maxTemp":"19","minTemp":"12","weatherIcon":2302}]},{"name":"Buenos Aires","lat":"-34.580000000","lng":"-58.480000000","isCapital":true,"src":"www.smn.gov.ar","srcName":"Servicio Meteorol\u00f3gico Nacional","forecastDay":[{"forecastDate":"2023-11-14","maxTemp":"22","minTemp":"14","weatherIcon":2202}]},{"name":"Buenos Aires","lat":"-34.580000000","lng":"-58.480000000","isCapital":true,"src":"www.smn.gov.ar","srcName":"Servicio Meteorol\u00f3gico Nacional","forecastDay":[{"forecastDate":"2023-11-15","maxTemp":"25","minTemp":"17","weatherIcon":901}]},{"name":"Buenos Aires","lat":"-34.580000000","lng":"-58.480000000","isCapital":true,"src":"www.smn.gov.ar","srcName":"Servicio Meteorol\u00f3gico Nacional","forecastDay":[{"forecastDate":"2023-11-16","maxTemp":"26","minTemp":"17","weatherIcon":2501}]},{"name":"Buenos Aires","lat":"-34.580000000","lng":"-58.480000000","isCapital":true,"src":"www.smn.gov.ar","srcName":"Servicio Meteorol\u00f3gico Nacional","forecastDay":[{"forecastDate":"2023-11-17","maxTemp":"27","minTemp":"18","weatherIcon":2202}]},{"name":"Buenos Aires","lat":"-34.580000000","lng":"-58.480000000","isCapital":true,"src":"www.smn.gov.ar","srcName":"Servicio Meteorol\u00f3gico Nacional","forecastDay":[{"forecastDate":"2023-11-18","maxTemp":"23","minTemp":"17","weatherIcon":2201}]}]},"Cordoba":{"city":[{"name":"Cordoba","lat":"-31.320000000","lng":"-64.220000000","isCapital":false,"src":"www.smn.gov.ar","srcName":"Servicio Meteorol\u00f3gico Nacional","forecastDay":[{"forecastDate":"2023-11-12","maxTemp":"20","minTemp":"13","weatherIcon":202}]},{"name":"Cordoba","lat":"-31.320000000","lng":"-64.220000000","isCapital":false,"src":"www.smn.gov.ar","srcName":"Servicio Meteorol\u00f3gico Nacional","forecastDay":[{"forecastDate":"2023-11-13","maxTemp":"24","minTemp":"12","weatherIcon":2302}]},{"name":"Cordoba","lat":"-31.320000000","lng":"-64.220000000","isCapital":false,"src":"www.smn.gov.ar","srcName":"Servicio Meteorol\u00f3gico Nacional","forecastDay":[{"forecastDate":"2023-11-14","maxTemp":"25","minTemp":"11","weatherIcon":2201}]},{"name":"Cordoba","lat":"-31.320000000","lng":"-64.220000000","isCapital":false,"src":"www.smn.gov.ar","srcName":"Servicio Meteorol\u00f3gico Nacional","forecastDay":[{"forecastDate":"2023-11-15","maxTemp":"30","minTemp":"19","weatherIcon":2202}]},{"name":"Cordoba","lat":"-31.320000000","lng":"-64.220000000","isCapital":false,"src":"www.smn.gov.ar","srcName":"Servicio Meteorol\u00f3gico Nacional","forecastDay":[{"forecastDate":"2023-11-16","maxTemp":"29","minTemp":"20","weatherIcon":2202}]},{"name":"Cordoba","lat":"-31.320000000","lng":"-64.220000000","isCapital":false,"src":"www.smn.gov.ar","srcName":"Servicio Meteorol\u00f3gico Nacional","forecastDay":[{"forecastDate":"2023-11-17","maxTemp":"32","minTemp":"22","weatherIcon":2302}]},{"name":"Cordoba","lat":"-31.320000000","lng":"-64.220000000","isCapital":false,"src":"www.smn.gov.ar","srcName":"Servicio Meteorol\u00f3gico Nacional","forecastDay":[{"forecastDate":"2023-11-18","maxTemp":"25","minTemp":"18","weatherIcon":2501}]},{"name":"Cordoba","lat":"37.880000000","lng":"-4.780000000","isCapital":false,"src":"www.aemet.es","srcName":"Agencia Estatal de Meteorolog\u00eda","forecastDay":[{"forecastDate":"2023-11-12","maxTemp":"22","minTemp":"10","weatherIcon":2402}]},{"name":"Cordoba","lat":"37.880000000","lng":"-4.780000000","isCapital":false,"src":"www.aemet.es","srcName":"Agencia Estatal de Meteorolog\u00eda","forecastDay":[{"forecastDate":"2023-11-13","maxTemp":"26","minTemp":"11","weatherIcon":2402}]},{"name":"Cordoba","lat":"37.880000000","lng":"-4.780000000","isCapital":false,"src":"www.aemet.es","srcName":"Agencia Estatal de Meteorolog\u00eda","forecastDay":[{"forecastDate":"2023-11-14","maxTemp":"26","minTemp":"11","weatherIcon":2402}]},{"name":"Cordoba","lat":"37.880000000","lng":"-4.780000000","isCapital":false,"src":"www.aemet.es","srcName":"Agencia Estatal de Meteorolog\u00eda","forecastDay":[{"forecastDate":"2023-11-15","maxTemp":"27","minTemp":"11","weatherIcon":2402}]},{"name":"Cordoba","lat":"37.880000000","lng":"-4.780000000","isCapital":false,"src":"www.aemet.es","srcName":"Agencia Estatal de Meteorolog\u00eda","forecastDay":[{"forecastDate":"2023-11-16","maxTemp":"24","minTemp":"10","weatherIcon":2202}]}]},"El Calafate":{"city":[{"name":"El Calafate","lat":"-50.280000000","lng":"-72.050000000","isCapital":false,"src":"www.smn.gov.ar","srcName":"Servicio Meteorol\u00f3gico Nacional","forecastDay":[{"forecastDate":"2023-11-12","maxTemp":"8","minTemp":"-4","weatherIcon":2301}]},{"name":"El Calafate","lat":"-50.280000000","lng":"-72.050000000","isCapital":false,"src":"www.smn.gov.ar","srcName":"Servicio Meteorol\u00f3gico Nacional","forecastDay":[{"forecastDate":"2023-11-13","maxTemp":"6","minTemp":"1","weatherIcon":801}]},{"name":"El Calafate","lat":"-50.280000000","lng":"-72.050000000","isCapital":false,"src":"www.smn.gov.ar","srcName":"Servicio Meteorol\u00f3gico Nacional","forecastDay":[{"forecastDate":"2023-11-14","maxTemp":"8","minTemp":"-1","weatherIcon":801}]},{"name":"El Calafate","lat":"-50.280000000","lng":"-72.050000000","isCapital":false,"src":"www.smn.gov.ar","srcName":"Servicio Meteorol\u00f3gico Nacional","forecastDay":[{"forecastDate":"2023-11-15","maxTemp":"6","minTemp":"-1","weatherIcon":801}]},{"name":"El Calafate","lat":"-50.280000000","lng":"-72.050000000","isCapital":false,"src":"www.smn.gov.ar","srcName":"Servicio Meteorol\u00f3gico Nacional","forecastDay":[{"forecastDate":"2023-11-16","maxTemp":"6","minTemp":"-1","weatherIcon":801}]},{"name":"El Calafate","lat":"-50.280000000","lng":"-72.050000000","isCapital":false,"src":"www.smn.gov.ar","srcName":"Servicio Meteorol\u00f3gico Nacional","forecastDay":[{"forecastDate":"2023-11-17","maxTemp":"2","minTemp":"-3","weatherIcon":801}]},{"name":"El Calafate","lat":"-50.280000000","lng":"-72.050000000","isCapital":false,"src":"www.smn.gov.ar","srcName":"Servicio Meteorol\u00f3gico Nacional","forecastDay":[{"forecastDate":"2023-11-18","maxTemp":"5","minTemp":"-3","weatherIcon":2301}]}]},"Iguazu":{"city":[{"name":"Iguazu","lat":"-25.600000000","lng":"-54.570000000","isCapital":false,"src":"www.smn.gov.ar","srcName":"Servicio Meteorol\u00f3gico Nacional","forecastDay":[{"forecastDate":"2023-11-12","maxTemp":"37","minTemp":"25","weatherIcon":2302}]},{"name":"Iguazu","lat":"-25.600000000","lng":"-54.570000000","isCapital":false,"src":"www.smn.gov.ar","srcName":"Servicio Meteorol\u00f3gico Nacional","forecastDay":[{"forecastDate":"2023-11-13","maxTemp":"31","minTemp":"23","weatherIcon":201}]},{"name":"Iguazu","lat":"-25.600000000","lng":"-54.570000000","isCapital":false,"src":"www.smn.gov.ar","srcName":"Servicio Meteorol\u00f3gico Nacional","forecastDay":[{"forecastDate":"2023-11-14","maxTemp":"28","minTemp":"19","weatherIcon":201}]},{"name":"Iguazu","lat":"-25.600000000","lng":"-54.570000000","isCapital":false,"src":"www.smn.gov.ar","srcName":"Servicio Meteorol\u00f3gico Nacional","forecastDay":[{"forecastDate":"2023-11-15","maxTemp":"26","minTemp":"21","weatherIcon":1502}]},{"name":"Iguazu","lat":"-25.600000000","lng":"-54.570000000","isCapital":false,"src":"www.smn.gov.ar","srcName":"Servicio Meteorol\u00f3gico Nacional","forecastDay":[{"forecastDate":"2023-11-16","maxTemp":"34","minTemp":"25","weatherIcon":202}]},{"name":"Iguazu","lat":"-25.600000000","lng":"-54.570000000","isCapital":false,"src":"www.smn.gov.ar","srcName":"Servicio Meteorol\u00f3gico Nacional","forecastDay":[{"forecastDate":"2023-11-17","maxTemp":"33","minTemp":"24","weatherIcon":2202}]},{"name":"Iguazu","lat":"-25.600000000","lng":"-54.570000000","isCapital":false,"src":"www.smn.gov.ar","srcName":"Servicio Meteorol\u00f3gico Nacional","forecastDay":[{"forecastDate":"2023-11-18","maxTemp":"36","minTemp":"22","weatherIcon":1502}]}]},"Mar del Plata":{"city":[{"name":"Mar del Plata","lat":"-37.933333000","lng":"-57.583333000","isCapital":false,"src":"www.smn.gov.ar","srcName":"Servicio Meteorol\u00f3gico Nacional","forecastDay":[{"forecastDate":"2023-11-12","maxTemp":"15","minTemp":"7","weatherIcon":2302}]},{"name":"Mar del Plata","lat":"-37.933333000","lng":"-57.583333000","isCapital":false,"src":"www.smn.gov.ar","srcName":"Servicio Meteorol\u00f3gico Nacional","forecastDay":[{"forecastDate":"2023-11-13","maxTemp":"20","minTemp":"8","weatherIcon":2202}]},{"name":"Mar del Plata","lat":"-37.933333000","lng":"-57.583333000","isCapital":false,"src":"www.smn.gov.ar","srcName":"Servicio Meteorol\u00f3gico Nacional","forecastDay":[{"forecastDate":"2023-11-14","maxTemp":"23","minTemp":"10","weatherIcon":2202}]},{"name":"Mar del Plata","lat":"-37.933333000","lng":"-57.583333000","isCapital":false,"src":"www.smn.gov.ar","srcName":"Servicio Meteorol\u00f3gico Nacional","forecastDay":[{"forecastDate":"2023-11-15","maxTemp":"22","minTemp":"12","weatherIcon":901}]},{"name":"Mar del Plata","lat":"-37.933333000","lng":"-57.583333000","isCapital":false,"src":"www.smn.gov.ar","srcName":"Servicio Meteorol\u00f3gico Nacional","forecastDay":[{"forecastDate":"2023-11-16","maxTemp":"27","minTemp":"13","weatherIcon":2501}]},{"name":"Mar del Plata","lat":"-37.933333000","lng":"-57.583333000","isCapital":false,"src":"www.smn.gov.ar","srcName":"Servicio Meteorol\u00f3gico Nacional","forecastDay":[{"forecastDate":"2023-11-17","maxTemp":"26","minTemp":"17","weatherIcon":1502}]},{"name":"Mar del Plata","lat":"-37.933333000","lng":"-57.583333000","isCapital":false,"src":"www.smn.gov.ar","srcName":"Servicio Meteorol\u00f3gico Nacional","forecastDay":[{"forecastDate":"2023-11-18","maxTemp":"18","minTemp":"14","weatherIcon":2201}]}]},"Mendoza":{"city":[{"name":"Mendoza","lat":"-32.830000000","lng":"-68.780000000","isCapital":false,"src":"www.smn.gov.ar","srcName":"Servicio Meteorol\u00f3gico Nacional","forecastDay":[{"forecastDate":"2023-11-12","maxTemp":"19","minTemp":"13","weatherIcon":2302}]},{"name":"Mendoza","lat":"-32.830000000","lng":"-68.780000000","isCapital":false,"src":"www.smn.gov.ar","srcName":"Servicio Meteorol\u00f3gico Nacional","forecastDay":[{"forecastDate":"2023-11-13","maxTemp":"24","minTemp":"9","weatherIcon":2202}]},{"name":"Mendoza","lat":"-32.830000000","lng":"-68.780000000","isCapital":false,"src":"www.smn.gov.ar","srcName":"Servicio Meteorol\u00f3gico Nacional","forecastDay":[{"forecastDate":"2023-11-14","maxTemp":"27","minTemp":"13","weatherIcon":2202}]},{"name":"Mendoza","lat":"-32.830000000","lng":"-68.780000000","isCapital":false,"src":"www.smn.gov.ar","srcName":"Servicio Meteorol\u00f3gico Nacional","forecastDay":[{"forecastDate":"2023-11-15","maxTemp":"30","minTemp":"14","weatherIcon":2601}]},{"name":"Mendoza","lat":"-32.830000000","lng":"-68.780000000","isCapital":false,"src":"www.smn.gov.ar","srcName":"Servicio Meteorol\u00f3gico Nacional","forecastDay":[{"forecastDate":"2023-11-16","maxTemp":"28","minTemp":"13","weatherIcon":2501}]},{"name":"Mendoza","lat":"-32.830000000","lng":"-68.780000000","isCapital":false,"src":"www.smn.gov.ar","srcName":"Servicio Meteorol\u00f3gico Nacional","forecastDay":[{"forecastDate":"2023-11-17","maxTemp":"30","minTemp":"12","weatherIcon":2302}]},{"name":"Mendoza","lat":"-32.830000000","lng":"-68.780000000","isCapital":false,"src":"www.smn.gov.ar","srcName":"Servicio Meteorol\u00f3gico Nacional","forecastDay":[{"forecastDate":"2023-11-18","maxTemp":"30","minTemp":"14","weatherIcon":2202}]}]},"Salta":{"city":[{"name":"Salta","lat":"-24.850000000","lng":"-65.483333000","isCapital":false,"src":"www.smn.gov.ar","srcName":"Servicio Meteorol\u00f3gico Nacional","forecastDay":[{"forecastDate":"2023-11-12","maxTemp":"36","minTemp":"19","weatherIcon":201}]},{"name":"Salta","lat":"-24.850000000","lng":"-65.483333000","isCapital":false,"src":"www.smn.gov.ar","srcName":"Servicio Meteorol\u00f3gico Nacional","forecastDay":[{"forecastDate":"2023-11-13","maxTemp":"23","minTemp":"14","weatherIcon":202}]},{"name":"Salta","lat":"-24.850000000","lng":"-65.483333000","isCapital":false,"src":"www.smn.gov.ar","srcName":"Servicio Meteorol\u00f3gico Nacional","forecastDay":[{"forecastDate":"2023-11-14","maxTemp":"25","minTemp":"14","weatherIcon":1502}]},{"name":"Salta","lat":"-24.850000000","lng":"-65.483333000","isCapital":false,"src":"www.smn.gov.ar","srcName":"Servicio Meteorol\u00f3gico Nacional","forecastDay":[{"forecastDate":"2023-11-15","maxTemp":"30","minTemp":"14","weatherIcon":2302}]},{"name":"Salta","lat":"-24.850000000","lng":"-65.483333000","isCapital":false,"src":"www.smn.gov.ar","srcName":"Servicio Meteorol\u00f3gico Nacional","forecastDay":[{"forecastDate":"2023-11-16","maxTemp":"30","minTemp":"16","weatherIcon":901}]},{"name":"Salta","lat":"-24.850000000","lng":"-65.483333000","isCapital":false,"src":"www.smn.gov.ar","srcName":"Servicio Meteorol\u00f3gico Nacional","forecastDay":[{"forecastDate":"2023-11-17","maxTemp":"31","minTemp":"19","weatherIcon":1502}]},{"name":"Salta","lat":"-24.850000000","lng":"-65.483333000","isCapital":false,"src":"www.smn.gov.ar","srcName":"Servicio Meteorol\u00f3gico Nacional","forecastDay":[{"forecastDate":"2023-11-18","maxTemp":"32","minTemp":"17","weatherIcon":2301}]}]},"Trelew":{"city":[{"name":"Trelew","lat":"-43.200000000","lng":"-65.266667000","isCapital":false,"src":"www.smn.gov.ar","srcName":"Servicio Meteorol\u00f3gico Nacional","forecastDay":[{"forecastDate":"2023-11-12","maxTemp":"17","minTemp":"5","weatherIcon":901}]},{"name":"Trelew","lat":"-43.200000000","lng":"-65.266667000","isCapital":false,"src":"www.smn.gov.ar","srcName":"Servicio Meteorol\u00f3gico Nacional","forecastDay":[{"forecastDate":"2023-11-13","maxTemp":"22","minTemp":"8","weatherIcon":2302}]},{"name":"Trelew","lat":"-43.200000000","lng":"-65.266667000","isCapital":false,"src":"www.smn.gov.ar","srcName":"Servicio Meteorol\u00f3gico Nacional","forecastDay":[{"forecastDate":"2023-11-14","maxTemp":"18","minTemp":"7","weatherIcon":2302}]},{"name":"Trelew","lat":"-43.200000000","lng":"-65.266667000","isCapital":false,"src":"www.smn.gov.ar","srcName":"Servicio Meteorol\u00f3gico Nacional","forecastDay":[{"forecastDate":"2023-11-15","maxTemp":"20","minTemp":"8","weatherIcon":2302}]},{"name":"Trelew","lat":"-43.200000000","lng":"-65.266667000","isCapital":false,"src":"www.smn.gov.ar","srcName":"Servicio Meteorol\u00f3gico Nacional","forecastDay":[{"forecastDate":"2023-11-16","maxTemp":"22","minTemp":"11","weatherIcon":2601}]},{"name":"Trelew","lat":"-43.200000000","lng":"-65.266667000","isCapital":false,"src":"www.smn.gov.ar","srcName":"Servicio Meteorol\u00f3gico Nacional","forecastDay":[{"forecastDate":"2023-11-17","maxTemp":"13","minTemp":"9","weatherIcon":2601}]},{"name":"Trelew","lat":"-43.200000000","lng":"-65.266667000","isCapital":false,"src":"www.smn.gov.ar","srcName":"Servicio Meteorol\u00f3gico Nacional","forecastDay":[{"forecastDate":"2023-11-18","maxTemp":"16","minTemp":"8","weatherIcon":2302}]}]},"Ushuaia":{"city":[{"name":"Ushuaia","lat":"-54.800000000","lng":"-68.320000000","isCapital":false,"src":"www.smn.gov.ar","srcName":"Servicio Meteorol\u00f3gico Nacional","forecastDay":[{"forecastDate":"2023-11-12","maxTemp":"11","minTemp":"1","weatherIcon":2301}]},{"name":"Ushuaia","lat":"-54.800000000","lng":"-68.320000000","isCapital":false,"src":"www.smn.gov.ar","srcName":"Servicio Meteorol\u00f3gico Nacional","forecastDay":[{"forecastDate":"2023-11-13","maxTemp":"6","minTemp":"1","weatherIcon":801}]},{"name":"Ushuaia","lat":"-54.800000000","lng":"-68.320000000","isCapital":false,"src":"www.smn.gov.ar","srcName":"Servicio Meteorol\u00f3gico Nacional","forecastDay":[{"forecastDate":"2023-11-14","maxTemp":"7","minTemp":"1","weatherIcon":1401}]},{"name":"Ushuaia","lat":"-54.800000000","lng":"-68.320000000","isCapital":false,"src":"www.smn.gov.ar","srcName":"Servicio Meteorol\u00f3gico Nacional","forecastDay":[{"forecastDate":"2023-11-15","maxTemp":"6","minTemp":"3","weatherIcon":801}]},{"name":"Ushuaia","lat":"-54.800000000","lng":"-68.320000000","isCapital":false,"src":"www.smn.gov.ar","srcName":"Servicio Meteorol\u00f3gico Nacional","forecastDay":[{"forecastDate":"2023-11-16","maxTemp":"7","minTemp":"1","weatherIcon":801}]},{"name":"Ushuaia","lat":"-54.800000000","lng":"-68.320000000","isCapital":false,"src":"www.smn.gov.ar","srcName":"Servicio Meteorol\u00f3gico Nacional","forecastDay":[{"forecastDate":"2023-11-17","maxTemp":"3","minTemp":"2","weatherIcon":1502}]},{"name":"Ushuaia","lat":"-54.800000000","lng":"-68.320000000","isCapital":false,"src":"www.smn.gov.ar","srcName":"Servicio Meteorol\u00f3gico Nacional","forecastDay":[{"forecastDate":"2023-11-18","maxTemp":"4","minTemp":"1","weatherIcon":801}]}]},"Dilijan":{"city":[{"name":"Dilijan","lat":"40.741944000","lng":"44.863611000","isCapital":false,"src":"","srcName":"Hydrometeorology and Monitoring Center SNCO","forecastDay":[{"forecastDate":"2023-11-13","maxTemp":"16","minTemp":"4","weatherIcon":2301}]},{"name":"Dilijan","lat":"40.741944000","lng":"44.863611000","isCapital":false,"src":"","srcName":"Hydrometeorology and Monitoring Center SNCO","forecastDay":[{"forecastDate":"2023-11-14","maxTemp":"18","minTemp":"6","weatherIcon":2301}]},{"name":"Dilijan","lat":"40.741944000","lng":"44.863611000","isCapital":false,"src":"","srcName":"Hydrometeorology and Monitoring Center SNCO","forecastDay":[{"forecastDate":"2023-11-15","maxTemp":"17","minTemp":"7","weatherIcon":2301}]},{"name":"Dilijan","lat":"40.741944000","lng":"44.863611000","isCapital":false,"src":"","srcName":"Hydrometeorology and Monitoring Center SNCO","forecastDay":[{"forecastDate":"2023-11-16","maxTemp":"15","minTemp":"5","weatherIcon":2301}]},{"name":"Dilijan","lat":"40.741944000","lng":"44.863611000","isCapital":false,"src":"","srcName":"Hydrometeorology and Monitoring Center SNCO","forecastDay":[{"forecastDate":"2023-11-17","maxTemp":"15","minTemp":"5","weatherIcon":2301}]}]},"Jermuk":{"city":[{"name":"Jermuk","lat":"39.832500000","lng":"45.670278000","isCapital":false,"src":"","srcName":"Hydrometeorology and Monitoring Center SNCO","forecastDay":[{"forecastDate":"2023-11-13","maxTemp":"15","minTemp":"1","weatherIcon":2301}]},{"name":"Jermuk","lat":"39.832500000","lng":"45.670278000","isCapital":false,"src":"","srcName":"Hydrometeorology and Monitoring Center SNCO","forecastDay":[{"forecastDate":"2023-11-14","maxTemp":"14","minTemp":"2","weatherIcon":2301}]},{"name":"Jermuk","lat":"39.832500000","lng":"45.670278000","isCapital":false,"src":"","srcName":"Hydrometeorology and Monitoring Center SNCO","forecastDay":[{"forecastDate":"2023-11-15","maxTemp":"12","minTemp":"3","weatherIcon":2301}]},{"name":"Jermuk","lat":"39.832500000","lng":"45.670278000","isCapital":false,"src":"","srcName":"Hydrometeorology and Monitoring Center SNCO","forecastDay":[{"forecastDate":"2023-11-16","maxTemp":"11","minTemp":"3","weatherIcon":201}]},{"name":"Jermuk","lat":"39.832500000","lng":"45.670278000","isCapital":false,"src":"","srcName":"Hydrometeorology and Monitoring Center SNCO","forecastDay":[{"forecastDate":"2023-11-17","maxTemp":"11","minTemp":"3","weatherIcon":201}]}]},"Kapan":{"city":[{"name":"Kapan","lat":"39.180000000","lng":"46.380000000","isCapital":false,"src":"","srcName":"Hydrometeorology and Monitoring Center SNCO","forecastDay":[{"forecastDate":"2023-11-13","maxTemp":"21","minTemp":"9","weatherIcon":2301}]},{"name":"Kapan","lat":"39.180000000","lng":"46.380000000","isCapital":false,"src":"","srcName":"Hydrometeorology and Monitoring Center SNCO","forecastDay":[{"forecastDate":"2023-11-14","maxTemp":"20","minTemp":"9","weatherIcon":2301}]},{"name":"Kapan","lat":"39.180000000","lng":"46.380000000","isCapital":false,"src":"","srcName":"Hydrometeorology and Monitoring Center SNCO","forecastDay":[{"forecastDate":"2023-11-15","maxTemp":"18","minTemp":"10","weatherIcon":2301}]},{"name":"Kapan","lat":"39.180000000","lng":"46.380000000","isCapital":false,"src":"","srcName":"Hydrometeorology and Monitoring Center SNCO","forecastDay":[{"forecastDate":"2023-11-16","maxTemp":"18","minTemp":"11","weatherIcon":2301}]},{"name":"Kapan","lat":"39.180000000","lng":"46.380000000","isCapital":false,"src":"","srcName":"Hydrometeorology and Monitoring Center SNCO","forecastDay":[{"forecastDate":"2023-11-17","maxTemp":"14","minTemp":"8","weatherIcon":2301}]}]},"Sevan":{"city":[{"name":"Sevan","lat":"40.530000000","lng":"44.930000000","isCapital":false,"src":"","srcName":"Hydrometeorology and Monitoring Center SNCO","forecastDay":[{"forecastDate":"2023-11-13","maxTemp":"15","minTemp":"3","weatherIcon":2301}]},{"name":"Sevan","lat":"40.530000000","lng":"44.930000000","isCapital":false,"src":"","srcName":"Hydrometeorology and Monitoring Center SNCO","forecastDay":[{"forecastDate":"2023-11-14","maxTemp":"13","minTemp":"3","weatherIcon":2301}]},{"name":"Sevan","lat":"40.530000000","lng":"44.930000000","isCapital":false,"src":"","srcName":"Hydrometeorology and Monitoring Center SNCO","forecastDay":[{"forecastDate":"2023-11-15","maxTemp":"12","minTemp":"3","weatherIcon":2301}]},{"name":"Sevan","lat":"40.530000000","lng":"44.930000000","isCapital":false,"src":"","srcName":"Hydrometeorology and Monitoring Center SNCO","forecastDay":[{"forecastDate":"2023-11-16","maxTemp":"11","minTemp":"7","weatherIcon":201}]},{"name":"Sevan","lat":"40.530000000","lng":"44.930000000","isCapital":false,"src":"","srcName":"Hydrometeorology and Monitoring Center SNCO","forecastDay":[{"forecastDate":"2023-11-17","maxTemp":"9","minTemp":"7","weatherIcon":201}]}]},"Vanadzor":{"city":[{"name":"Vanadzor","lat":"40.800000000","lng":"44.470000000","isCapital":false,"src":"","srcName":"Hydrometeorology and Monitoring Center SNCO","forecastDay":[{"forecastDate":"2023-11-13","maxTemp":"18","minTemp":"7","weatherIcon":2301}]},{"name":"Vanadzor","lat":"40.800000000","lng":"44.470000000","isCapital":false,"src":"","srcName":"Hydrometeorology and Monitoring Center SNCO","forecastDay":[{"forecastDate":"2023-11-14","maxTemp":"17","minTemp":"8","weatherIcon":2301}]},{"name":"Vanadzor","lat":"40.800000000","lng":"44.470000000","isCapital":false,"src":"","srcName":"Hydrometeorology and Monitoring Center SNCO","forecastDay":[{"forecastDate":"2023-11-15","maxTemp":"16","minTemp":"5","weatherIcon":2301}]},{"name":"Vanadzor","lat":"40.800000000","lng":"44.470000000","isCapital":false,"src":"","srcName":"Hydrometeorology and Monitoring Center SNCO","forecastDay":[{"forecastDate":"2023-11-16","maxTemp":"14","minTemp":"5","weatherIcon":2301}]},{"name":"Vanadzor","lat":"40.800000000","lng":"44.470000000","isCapital":false,"src":"","srcName":"Hydrometeorology and Monitoring Center SNCO","forecastDay":[{"forecastDate":"2023-11-17","maxTemp":"14","minTemp":"5","weatherIcon":2301}]}]},"Yerevan":{"city":[{"name":"Yerevan","lat":"40.130000000","lng":"44.470000000","isCapital":true,"src":"","srcName":"Hydrometeorology and Monitoring Center SNCO","forecastDay":[{"forecastDate":"2023-11-13","maxTemp":"20","minTemp":"6","weatherIcon":2301}]},{"name":"Yerevan","lat":"40.130000000","lng":"44.470000000","isCapital":true,"src":"","srcName":"Hydrometeorology and Monitoring Center SNCO","forecastDay":[{"forecastDate":"2023-11-14","maxTemp":"19","minTemp":"6","weatherIcon":2301}]},{"name":"Yerevan","lat":"40.130000000","lng":"44.470000000","isCapital":true,"src":"","srcName":"Hydrometeorology and Monitoring Center SNCO","forecastDay":[{"forecastDate":"2023-11-15","maxTemp":"19","minTemp":"7","weatherIcon":2301}]},{"name":"Yerevan","lat":"40.130000000","lng":"44.470000000","isCapital":true,"src":"","srcName":"Hydrometeorology and Monitoring Center SNCO","forecastDay":[{"forecastDate":"2023-11-16","maxTemp":"19","minTemp":"7","weatherIcon":2301}]},{"name":"Yerevan","lat":"40.130000000","lng":"44.470000000","isCapital":true,"src":"","srcName":"Hydrometeorology and Monitoring Center SNCO","forecastDay":[{"forecastDate":"2023-11-17","maxTemp":"19","minTemp":"7","weatherIcon":2301}]}]},"Adelaide":{"city":[{"name":"Adelaide","lat":"-34.960000000","lng":"138.530000000","isCapital":false,"src":"www.bom.gov.au","srcName":"Bureau of Meteorology","forecastDay":[{"forecastDate":"2023-11-12","maxTemp":"","minTemp":"","weatherIcon":2202}]},{"name":"Adelaide","lat":"-34.960000000","lng":"138.530000000","isCapital":false,"src":"www.bom.gov.au","srcName":"Bureau of Meteorology","forecastDay":[{"forecastDate":"2023-11-13","maxTemp":"26","minTemp":"10","weatherIcon":2202}]},{"name":"Adelaide","lat":"-34.960000000","lng":"138.530000000","isCapital":false,"src":"www.bom.gov.au","srcName":"Bureau of Meteorology","forecastDay":[{"forecastDate":"2023-11-14","maxTemp":"23","minTemp":"12","weatherIcon":2202}]},{"name":"Adelaide","lat":"-34.960000000","lng":"138.530000000","isCapital":false,"src":"www.bom.gov.au","srcName":"Bureau of Meteorology","forecastDay":[{"forecastDate":"2023-11-15","maxTemp":"23","minTemp":"11","weatherIcon":2202}]},{"name":"Adelaide","lat":"-34.960000000","lng":"138.530000000","isCapital":false,"src":"www.bom.gov.au","srcName":"Bureau of Meteorology","forecastDay":[{"forecastDate":"2023-11-16","maxTemp":"22","minTemp":"11","weatherIcon":2202}]},{"name":"Adelaide","lat":"-34.960000000","lng":"138.530000000","isCapital":false,"src":"www.bom.gov.au","srcName":"Bureau of Meteorology","forecastDay":[{"forecastDate":"2023-11-17","maxTemp":"25","minTemp":"9","weatherIcon":2402}]},{"name":"Adelaide","lat":"-34.960000000","lng":"138.530000000","isCapital":false,"src":"www.bom.gov.au","srcName":"Bureau of Meteorology","forecastDay":[{"forecastDate":"2023-11-18","maxTemp":"28","minTemp":"11","weatherIcon":2202}]},{"name":"Adelaide","lat":"-34.960000000","lng":"138.530000000","isCapital":false,"src":"www.bom.gov.au","srcName":"Bureau of Meteorology","forecastDay":[{"forecastDate":"2023-11-19","maxTemp":"31","minTemp":"16","weatherIcon":2202}]}]},"Adventure Bay":{"city":[{"name":"Adventure Bay","lat":"-43.350000000","lng":"147.320000000","isCapital":false,"src":"www.bom.gov.au","srcName":"Bureau of Meteorology","forecastDay":[{"forecastDate":"2023-11-12","maxTemp":"","minTemp":"","weatherIcon":1101}]},{"name":"Adventure Bay","lat":"-43.350000000","lng":"147.320000000","isCapital":false,"src":"www.bom.gov.au","srcName":"Bureau of Meteorology","forecastDay":[{"forecastDate":"2023-11-13","maxTemp":"20","minTemp":"7","weatherIcon":2601}]},{"name":"Adventure Bay","lat":"-43.350000000","lng":"147.320000000","isCapital":false,"src":"www.bom.gov.au","srcName":"Bureau of Meteorology","forecastDay":[{"forecastDate":"2023-11-14","maxTemp":"16","minTemp":"7","weatherIcon":2601}]},{"name":"Adventure Bay","lat":"-43.350000000","lng":"147.320000000","isCapital":false,"src":"www.bom.gov.au","srcName":"Bureau of Meteorology","forecastDay":[{"forecastDate":"2023-11-15","maxTemp":"18","minTemp":"5","weatherIcon":1101}]},{"name":"Adventure Bay","lat":"-43.350000000","lng":"147.320000000","isCapital":false,"src":"www.bom.gov.au","srcName":"Bureau of Meteorology","forecastDay":[{"forecastDate":"2023-11-16","maxTemp":"16","minTemp":"7","weatherIcon":1101}]},{"name":"Adventure Bay","lat":"-43.350000000","lng":"147.320000000","isCapital":false,"src":"www.bom.gov.au","srcName":"Bureau of Meteorology","forecastDay":[{"forecastDate":"2023-11-17","maxTemp":"20","minTemp":"7","weatherIcon":2202}]},{"name":"Adventure Bay","lat":"-43.350000000","lng":"147.320000000","isCapital":false,"src":"www.bom.gov.au","srcName":"Bureau of Meteorology","forecastDay":[{"forecastDate":"2023-11-18","maxTemp":"19","minTemp":"9","weatherIcon":2301}]},{"name":"Adventure Bay","lat":"-43.350000000","lng":"147.320000000","isCapital":false,"src":"www.bom.gov.au","srcName":"Bureau of Meteorology","forecastDay":[{"forecastDate":"2023-11-19","maxTemp":"19","minTemp":"8","weatherIcon":2301}]}]},"Albany":{"city":[{"name":"Albany","lat":"-34.940000000","lng":"117.800000000","isCapital":false,"src":"www.bom.gov.au","srcName":"Bureau of Meteorology","forecastDay":[{"forecastDate":"2023-11-12","maxTemp":"","minTemp":"","weatherIcon":2301}]},{"name":"Albany","lat":"-34.940000000","lng":"117.800000000","isCapital":false,"src":"www.bom.gov.au","srcName":"Bureau of Meteorology","forecastDay":[{"forecastDate":"2023-11-13","maxTemp":"19","minTemp":"15","weatherIcon":1101}]},{"name":"Albany","lat":"-34.940000000","lng":"117.800000000","isCapital":false,"src":"www.bom.gov.au","srcName":"Bureau of Meteorology","forecastDay":[{"forecastDate":"2023-11-14","maxTemp":"19","minTemp":"15","weatherIcon":1101}]},{"name":"Albany","lat":"-34.940000000","lng":"117.800000000","isCapital":false,"src":"www.bom.gov.au","srcName":"Bureau of Meteorology","forecastDay":[{"forecastDate":"2023-11-15","maxTemp":"19","minTemp":"15","weatherIcon":1101}]},{"name":"Albany","lat":"-34.940000000","lng":"117.800000000","isCapital":false,"src":"www.bom.gov.au","srcName":"Bureau of Meteorology","forecastDay":[{"forecastDate":"2023-11-16","maxTemp":"20","minTemp":"15","weatherIcon":2601}]},{"name":"Albany","lat":"-34.940000000","lng":"117.800000000","isCapital":false,"src":"www.bom.gov.au","srcName":"Bureau of Meteorology","forecastDay":[{"forecastDate":"2023-11-17","maxTemp":"21","minTemp":"16","weatherIcon":1101}]},{"name":"Albany","lat":"-34.940000000","lng":"117.800000000","isCapital":false,"src":"www.bom.gov.au","srcName":"Bureau of Meteorology","forecastDay":[{"forecastDate":"2023-11-18","maxTemp":"20","minTemp":"16","weatherIcon":1101}]},{"name":"Albany","lat":"-34.940000000","lng":"117.800000000","isCapital":false,"src":"www.bom.gov.au","srcName":"Bureau of Meteorology","forecastDay":[{"forecastDate":"2023-11-19","maxTemp":"20","minTemp":"15","weatherIcon":1101}]}]},"Albion Park":{"city":[{"name":"Albion Park","lat":"-34.560000000","lng":"150.790000000","isCapital":false,"src":"www.bom.gov.au","srcName":"Bureau of Meteorology","forecastDay":[{"forecastDate":"2023-11-12","maxTemp":"","minTemp":"","weatherIcon":2301}]},{"name":"Albion Park","lat":"-34.560000000","lng":"150.790000000","isCapital":false,"src":"www.bom.gov.au","srcName":"Bureau of Meteorology","forecastDay":[{"forecastDate":"2023-11-13","maxTemp":"21","minTemp":"14","weatherIcon":2202}]},{"name":"Albion Park","lat":"-34.560000000","lng":"150.790000000","isCapital":false,"src":"www.bom.gov.au","srcName":"Bureau of Meteorology","forecastDay":[{"forecastDate":"2023-11-14","maxTemp":"26","minTemp":"13","weatherIcon":2202}]},{"name":"Albion Park","lat":"-34.560000000","lng":"150.790000000","isCapital":false,"src":"www.bom.gov.au","srcName":"Bureau of Meteorology","forecastDay":[{"forecastDate":"2023-11-15","maxTemp":"25","minTemp":"16","weatherIcon":1101}]},{"name":"Albion Park","lat":"-34.560000000","lng":"150.790000000","isCapital":false,"src":"www.bom.gov.au","srcName":"Bureau of Meteorology","forecastDay":[{"forecastDate":"2023-11-16","maxTemp":"21","minTemp":"14","weatherIcon":1101}]},{"name":"Albion Park","lat":"-34.560000000","lng":"150.790000000","isCapital":false,"src":"www.bom.gov.au","srcName":"Bureau of Meteorology","forecastDay":[{"forecastDate":"2023-11-17","maxTemp":"21","minTemp":"12","weatherIcon":2202}]},{"name":"Albion Park","lat":"-34.560000000","lng":"150.790000000","isCapital":false,"src":"www.bom.gov.au","srcName":"Bureau of Meteorology","forecastDay":[{"forecastDate":"2023-11-18","maxTemp":"27","minTemp":"12","weatherIcon":2202}]},{"name":"Albion Park","lat":"-34.560000000","lng":"150.790000000","isCapital":false,"src":"www.bom.gov.au","srcName":"Bureau of Meteorology","forecastDay":[{"forecastDate":"2023-11-19","maxTemp":"25","minTemp":"15","weatherIcon":1101}]}]},"Albury":{"city":[{"name":"Albury","lat":"-36.070000000","lng":"146.900000000","isCapital":false,"src":"www.bom.gov.au","srcName":"Bureau of Meteorology","forecastDay":[{"forecastDate":"2023-11-12","maxTemp":"","minTemp":"","weatherIcon":2502}]},{"name":"Albury","lat":"-36.070000000","lng":"146.900000000","isCapital":false,"src":"www.bom.gov.au","srcName":"Bureau of Meteorology","forecastDay":[{"forecastDate":"2023-11-13","maxTemp":"27","minTemp":"9","weatherIcon":2402}]},{"name":"Albury","lat":"-36.070000000","lng":"146.900000000","isCapital":false,"src":"www.bom.gov.au","srcName":"Bureau of Meteorology","forecastDay":[{"forecastDate":"2023-11-14","maxTemp":"24","minTemp":"10","weatherIcon":2301}]},{"name":"Albury","lat":"-36.070000000","lng":"146.900000000","isCapital":false,"src":"www.bom.gov.au","srcName":"Bureau of Meteorology","forecastDay":[{"forecastDate":"2023-11-15","maxTemp":"26","minTemp":"11","weatherIcon":2202}]},{"name":"Albury","lat":"-36.070000000","lng":"146.900000000","isCapital":false,"src":"www.bom.gov.au","srcName":"Bureau of Meteorology","forecastDay":[{"forecastDate":"2023-11-16","maxTemp":"25","minTemp":"11","weatherIcon":2402}]},{"name":"Albury","lat":"-36.070000000","lng":"146.900000000","isCapital":false,"src":"www.bom.gov.au","srcName":"Bureau of Meteorology","forecastDay":[{"forecastDate":"2023-11-17","maxTemp":"27","minTemp":"8","weatherIcon":2402}]},{"name":"Albury","lat":"-36.070000000","lng":"146.900000000","isCapital":false,"src":"www.bom.gov.au","srcName":"Bureau of Meteorology","forecastDay":[{"forecastDate":"2023-11-18","maxTemp":"29","minTemp":"10","weatherIcon":2202}]},{"name":"Albury","lat":"-36.070000000","lng":"146.900000000","isCapital":false,"src":"www.bom.gov.au","srcName":"Bureau of Meteorology","forecastDay":[{"forecastDate":"2023-11-19","maxTemp":"32","minTemp":"12","weatherIcon":2202}]}]},"Albury / Wodonga":{"city":[{"name":"Albury / Wodonga","lat":"-36.070000000","lng":"146.960000000","isCapital":false,"src":"www.bom.gov.au","srcName":"Bureau of Meteorology","forecastDay":[{"forecastDate":"2023-11-12","maxTemp":"","minTemp":"","weatherIcon":2502}]},{"name":"Albury / Wodonga","lat":"-36.070000000","lng":"146.960000000","isCapital":false,"src":"www.bom.gov.au","srcName":"Bureau of Meteorology","forecastDay":[{"forecastDate":"2023-11-13","maxTemp":"27","minTemp":"8","weatherIcon":2402}]},{"name":"Albury / Wodonga","lat":"-36.070000000","lng":"146.960000000","isCapital":false,"src":"www.bom.gov.au","srcName":"Bureau of Meteorology","forecastDay":[{"forecastDate":"2023-11-14","maxTemp":"24","minTemp":"10","weatherIcon":2301}]},{"name":"Albury / Wodonga","lat":"-36.070000000","lng":"146.960000000","isCapital":false,"src":"www.bom.gov.au","srcName":"Bureau of Meteorology","forecastDay":[{"forecastDate":"2023-11-15","maxTemp":"26","minTemp":"10","weatherIcon":2202}]},{"name":"Albury / Wodonga","lat":"-36.070000000","lng":"146.960000000","isCapital":false,"src":"www.bom.gov.au","srcName":"Bureau of Meteorology","forecastDay":[{"forecastDate":"2023-11-16","maxTemp":"25","minTemp":"10","weatherIcon":2402}]},{"name":"Albury / Wodonga","lat":"-36.070000000","lng":"146.960000000","isCapital":false,"src":"www.bom.gov.au","srcName":"Bureau of Meteorology","forecastDay":[{"forecastDate":"2023-11-17","maxTemp":"27","minTemp":"7","weatherIcon":2402}]},{"name":"Albury / Wodonga","lat":"-36.070000000","lng":"146.960000000","isCapital":false,"src":"www.bom.gov.au","srcName":"Bureau of Meteorology","forecastDay":[{"forecastDate":"2023-11-18","maxTemp":"30","minTemp":"9","weatherIcon":2202}]},{"name":"Albury / Wodonga","lat":"-36.070000000","lng":"146.960000000","isCapital":false,"src":"www.bom.gov.au","srcName":"Bureau of Meteorology","forecastDay":[{"forecastDate":"2023-11-19","maxTemp":"32","minTemp":"11","weatherIcon":2202}]}]},"Alice Springs":{"city":[{"name":"Alice Springs","lat":"-23.800000000","lng":"133.890000000","isCapital":false,"src":"www.bom.gov.au","srcName":"Bureau of Meteorology","forecastDay":[{"forecastDate":"2023-11-12","maxTemp":"","minTemp":"","weatherIcon":203}]},{"name":"Alice Springs","lat":"-23.800000000","lng":"133.890000000","isCapital":false,"src":"www.bom.gov.au","srcName":"Bureau of Meteorology","forecastDay":[{"forecastDate":"2023-11-13","maxTemp":"36","minTemp":"20","weatherIcon":2202}]},{"name":"Alice Springs","lat":"-23.800000000","lng":"133.890000000","isCapital":false,"src":"www.bom.gov.au","srcName":"Bureau of Meteorology","forecastDay":[{"forecastDate":"2023-11-14","maxTemp":"38","minTemp":"21","weatherIcon":2202}]},{"name":"Alice Springs","lat":"-23.800000000","lng":"133.890000000","isCapital":false,"src":"www.bom.gov.au","srcName":"Bureau of Meteorology","forecastDay":[{"forecastDate":"2023-11-15","maxTemp":"39","minTemp":"22","weatherIcon":2202}]},{"name":"Alice Springs","lat":"-23.800000000","lng":"133.890000000","isCapital":false,"src":"www.bom.gov.au","srcName":"Bureau of Meteorology","forecastDay":[{"forecastDate":"2023-11-16","maxTemp":"37","minTemp":"21","weatherIcon":2202}]},{"name":"Alice Springs","lat":"-23.800000000","lng":"133.890000000","isCapital":false,"src":"www.bom.gov.au","srcName":"Bureau of Meteorology","forecastDay":[{"forecastDate":"2023-11-17","maxTemp":"35","minTemp":"21","weatherIcon":2202}]},{"name":"Alice Springs","lat":"-23.800000000","lng":"133.890000000","isCapital":false,"src":"www.bom.gov.au","srcName":"Bureau of Meteorology","forecastDay":[{"forecastDate":"2023-11-18","maxTemp":"38","minTemp":"19","weatherIcon":2202}]},{"name":"Alice Springs","lat":"-23.800000000","lng":"133.890000000","isCapital":false,"src":"www.bom.gov.au","srcName":"Bureau of Meteorology","forecastDay":[{"forecastDate":"2023-11-19","maxTemp":"38","minTemp":"22","weatherIcon":2202}]}]},"Alyangula":{"city":[{"name":"Alyangula","lat":"-13.980000000","lng":"136.430000000","isCapital":false,"src":"www.bom.gov.au","srcName":"Bureau of Meteorology","forecastDay":[{"forecastDate":"2023-11-12","maxTemp":"","minTemp":"","weatherIcon":2502}]},{"name":"Alyangula","lat":"-13.980000000","lng":"136.430000000","isCapital":false,"src":"www.bom.gov.au","srcName":"Bureau of Meteorology","forecastDay":[{"forecastDate":"2023-11-13","maxTemp":"34","minTemp":"22","weatherIcon":2202}]},{"name":"Alyangula","lat":"-13.980000000","lng":"136.430000000","isCapital":false,"src":"www.bom.gov.au","srcName":"Bureau of Meteorology","forecastDay":[{"forecastDate":"2023-11-14","maxTemp":"34","minTemp":"22","weatherIcon":2202}]},{"name":"Alyangula","lat":"-13.980000000","lng":"136.430000000","isCapital":false,"src":"www.bom.gov.au","srcName":"Bureau of Meteorology","forecastDay":[{"forecastDate":"2023-11-15","maxTemp":"34","minTemp":"22","weatherIcon":2402}]},{"name":"Alyangula","lat":"-13.980000000","lng":"136.430000000","isCapital":false,"src":"www.bom.gov.au","srcName":"Bureau of Meteorology","forecastDay":[{"forecastDate":"2023-11-16","maxTemp":"35","minTemp":"22","weatherIcon":2402}]},{"name":"Alyangula","lat":"-13.980000000","lng":"136.430000000","isCapital":false,"src":"www.bom.gov.au","srcName":"Bureau of Meteorology","forecastDay":[{"forecastDate":"2023-11-17","maxTemp":"36","minTemp":"22","weatherIcon":2402}]},{"name":"Alyangula","lat":"-13.980000000","lng":"136.430000000","isCapital":false,"src":"www.bom.gov.au","srcName":"Bureau of Meteorology","forecastDay":[{"forecastDate":"2023-11-18","maxTemp":"36","minTemp":"23","weatherIcon":2402}]},{"name":"Alyangula","lat":"-13.980000000","lng":"136.430000000","isCapital":false,"src":"www.bom.gov.au","srcName":"Bureau of Meteorology","forecastDay":[{"forecastDate":"2023-11-19","maxTemp":"35","minTemp":"24","weatherIcon":2402}]}]},"Ararat":{"city":[{"name":"Ararat","lat":"-37.280000000","lng":"142.980000000","isCapital":false,"src":"www.bom.gov.au","srcName":"Bureau of Meteorology","forecastDay":[{"forecastDate":"2023-11-12","maxTemp":"","minTemp":"","weatherIcon":2202}]},{"name":"Ararat","lat":"-37.280000000","lng":"142.980000000","isCapital":false,"src":"www.bom.gov.au","srcName":"Bureau of Meteorology","forecastDay":[{"forecastDate":"2023-11-13","maxTemp":"23","minTemp":"6","weatherIcon":2202}]},{"name":"Ararat","lat":"-37.280000000","lng":"142.980000000","isCapital":false,"src":"www.bom.gov.au","srcName":"Bureau of Meteorology","forecastDay":[{"forecastDate":"2023-11-14","maxTemp":"20","minTemp":"7","weatherIcon":2301}]},{"name":"Ararat","lat":"-37.280000000","lng":"142.980000000","isCapital":false,"src":"www.bom.gov.au","srcName":"Bureau of Meteorology","forecastDay":[{"forecastDate":"2023-11-15","maxTemp":"22","minTemp":"6","weatherIcon":2202}]},{"name":"Ararat","lat":"-37.280000000","lng":"142.980000000","isCapital":false,"src":"www.bom.gov.au","srcName":"Bureau of Meteorology","forecastDay":[{"forecastDate":"2023-11-16","maxTemp":"20","minTemp":"7","weatherIcon":2301}]},{"name":"Ararat","lat":"-37.280000000","lng":"142.980000000","isCapital":false,"src":"www.bom.gov.au","srcName":"Bureau of Meteorology","forecastDay":[{"forecastDate":"2023-11-17","maxTemp":"23","minTemp":"5","weatherIcon":2202}]},{"name":"Ararat","lat":"-37.280000000","lng":"142.980000000","isCapital":false,"src":"www.bom.gov.au","srcName":"Bureau of Meteorology","forecastDay":[{"forecastDate":"2023-11-18","maxTemp":"27","minTemp":"6","weatherIcon":2202}]},{"name":"Ararat","lat":"-37.280000000","lng":"142.980000000","isCapital":false,"src":"www.bom.gov.au","srcName":"Bureau of Meteorology","forecastDay":[{"forecastDate":"2023-11-19","maxTemp":"31","minTemp":"9","weatherIcon":2202}]}]},"Armidale":{"city":[{"name":"Armidale","lat":"-30.520000000","lng":"151.670000000","isCapital":false,"src":"www.bom.gov.au","srcName":"Bureau of Meteorology","forecastDay":[{"forecastDate":"2023-11-12","maxTemp":"","minTemp":"","weatherIcon":2202}]},{"name":"Armidale","lat":"-30.520000000","lng":"151.670000000","isCapital":false,"src":"www.bom.gov.au","srcName":"Bureau of Meteorology","forecastDay":[{"forecastDate":"2023-11-13","maxTemp":"30","minTemp":"14","weatherIcon":203}]},{"name":"Armidale","lat":"-30.520000000","lng":"151.670000000","isCapital":false,"src":"www.bom.gov.au","srcName":"Bureau of Meteorology","forecastDay":[{"forecastDate":"2023-11-14","maxTemp":"30","minTemp":"10","weatherIcon":2402}]},{"name":"Armidale","lat":"-30.520000000","lng":"151.670000000","isCapital":false,"src":"www.bom.gov.au","srcName":"Bureau of Meteorology","forecastDay":[{"forecastDate":"2023-11-15","maxTemp":"28","minTemp":"12","weatherIcon":2202}]},{"name":"Armidale","lat":"-30.520000000","lng":"151.670000000","isCapital":false,"src":"www.bom.gov.au","srcName":"Bureau of Meteorology","forecastDay":[{"forecastDate":"2023-11-16","maxTemp":"25","minTemp":"11","weatherIcon":1101}]},{"name":"Armidale","lat":"-30.520000000","lng":"151.670000000","isCapital":false,"src":"www.bom.gov.au","srcName":"Bureau of Meteorology","forecastDay":[{"forecastDate":"2023-11-17","maxTemp":"24","minTemp":"8","weatherIcon":2202}]},{"name":"Armidale","lat":"-30.520000000","lng":"151.670000000","isCapital":false,"src":"www.bom.gov.au","srcName":"Bureau of Meteorology","forecastDay":[{"forecastDate":"2023-11-18","maxTemp":"27","minTemp":"7","weatherIcon":2202}]},{"name":"Armidale","lat":"-30.520000000","lng":"151.670000000","isCapital":false,"src":"www.bom.gov.au","srcName":"Bureau of Meteorology","forecastDay":[{"forecastDate":"2023-11-19","maxTemp":"25","minTemp":"10","weatherIcon":1101}]}]},"Augusta":{"city":[{"name":"Augusta","lat":"-34.313300000","lng":"115.167500000","isCapital":false,"src":"www.bom.gov.au","srcName":"Bureau of Meteorology","forecastDay":[{"forecastDate":"2023-11-12","maxTemp":"","minTemp":"","weatherIcon":2202}]},{"name":"Augusta","lat":"-34.313300000","lng":"115.167500000","isCapital":false,"src":"www.bom.gov.au","srcName":"Bureau of Meteorology","forecastDay":[{"forecastDate":"2023-11-13","maxTemp":"27","minTemp":"14","weatherIcon":1101}]},{"name":"Augusta","lat":"-34.313300000","lng":"115.167500000","isCapital":false,"src":"www.bom.gov.au","srcName":"Bureau of Meteorology","forecastDay":[{"forecastDate":"2023-11-14","maxTemp":"29","minTemp":"15","weatherIcon":2202}]},{"name":"Augusta","lat":"-34.313300000","lng":"115.167500000","isCapital":false,"src":"www.bom.gov.au","srcName":"Bureau of Meteorology","forecastDay":[{"forecastDate":"2023-11-15","maxTemp":"28","minTemp":"15","weatherIcon":2202}]},{"name":"Augusta","lat":"-34.313300000","lng":"115.167500000","isCapital":false,"src":"www.bom.gov.au","srcName":"Bureau of Meteorology","forecastDay":[{"forecastDate":"2023-11-16","maxTemp":"28","minTemp":"14","weatherIcon":2202}]},{"name":"Augusta","lat":"-34.313300000","lng":"115.167500000","isCapital":false,"src":"www.bom.gov.au","srcName":"Bureau of Meteorology","forecastDay":[{"forecastDate":"2023-11-17","maxTemp":"28","minTemp":"16","weatherIcon":2202}]},{"name":"Augusta","lat":"-34.313300000","lng":"115.167500000","isCapital":false,"src":"www.bom.gov.au","srcName":"Bureau of Meteorology","forecastDay":[{"forecastDate":"2023-11-18","maxTemp":"26","minTemp":"16","weatherIcon":2202}]},{"name":"Augusta","lat":"-34.313300000","lng":"115.167500000","isCapital":false,"src":"www.bom.gov.au","srcName":"Bureau of Meteorology","forecastDay":[{"forecastDate":"2023-11-19","maxTemp":"25","minTemp":"14","weatherIcon":2202}]}]},"Avalon":{"city":[{"name":"Avalon","lat":"-38.030000000","lng":"144.480000000","isCapital":false,"src":"www.bom.gov.au","srcName":"Bureau of Meteorology","forecastDay":[{"forecastDate":"2023-11-12","maxTemp":"","minTemp":"","weatherIcon":2202}]},{"name":"Avalon","lat":"-38.030000000","lng":"144.480000000","isCapital":false,"src":"www.bom.gov.au","srcName":"Bureau of Meteorology","forecastDay":[{"forecastDate":"2023-11-13","maxTemp":"21","minTemp":"9","weatherIcon":2202}]},{"name":"Avalon","lat":"-38.030000000","lng":"144.480000000","isCapital":false,"src":"www.bom.gov.au","srcName":"Bureau of Meteorology","forecastDay":[{"forecastDate":"2023-11-14","maxTemp":"19","minTemp":"9","weatherIcon":2301}]},{"name":"Avalon","lat":"-38.030000000","lng":"144.480000000","isCapital":false,"src":"www.bom.gov.au","srcName":"Bureau of Meteorology","forecastDay":[{"forecastDate":"2023-11-15","maxTemp":"20","minTemp":"10","weatherIcon":2301}]},{"name":"Avalon","lat":"-38.030000000","lng":"144.480000000","isCapital":false,"src":"www.bom.gov.au","srcName":"Bureau of Meteorology","forecastDay":[{"forecastDate":"2023-11-16","maxTemp":"19","minTemp":"9","weatherIcon":2202}]},{"name":"Avalon","lat":"-38.030000000","lng":"144.480000000","isCapital":false,"src":"www.bom.gov.au","srcName":"Bureau of Meteorology","forecastDay":[{"forecastDate":"2023-11-17","maxTemp":"21","minTemp":"8","weatherIcon":2301}]},{"name":"Avalon","lat":"-38.030000000","lng":"144.480000000","isCapital":false,"src":"www.bom.gov.au","srcName":"Bureau of Meteorology","forecastDay":[{"forecastDate":"2023-11-18","maxTemp":"22","minTemp":"10","weatherIcon":2301}]},{"name":"Avalon","lat":"-38.030000000","lng":"144.480000000","isCapital":false,"src":"www.bom.gov.au","srcName":"Bureau of Meteorology","forecastDay":[{"forecastDate":"2023-11-19","maxTemp":"25","minTemp":"11","weatherIcon":2202}]}]},"Ayr / Home Hill":{"city":[{"name":"Ayr / Home Hill","lat":"-19.620000000","lng":"147.380000000","isCapital":false,"src":"www.bom.gov.au","srcName":"Bureau of Meteorology","forecastDay":[{"forecastDate":"2023-11-12","maxTemp":"","minTemp":"","weatherIcon":2502}]},{"name":"Ayr / Home Hill","lat":"-19.620000000","lng":"147.380000000","isCapital":false,"src":"www.bom.gov.au","srcName":"Bureau of Meteorology","forecastDay":[{"forecastDate":"2023-11-13","maxTemp":"31","minTemp":"18","weatherIcon":2202}]},{"name":"Ayr / Home Hill","lat":"-19.620000000","lng":"147.380000000","isCapital":false,"src":"www.bom.gov.au","srcName":"Bureau of Meteorology","forecastDay":[{"forecastDate":"2023-11-14","maxTemp":"31","minTemp":"18","weatherIcon":2202}]},{"name":"Ayr / Home Hill","lat":"-19.620000000","lng":"147.380000000","isCapital":false,"src":"www.bom.gov.au","srcName":"Bureau of Meteorology","forecastDay":[{"forecastDate":"2023-11-15","maxTemp":"31","minTemp":"18","weatherIcon":2402}]},{"name":"Ayr / Home Hill","lat":"-19.620000000","lng":"147.380000000","isCapital":false,"src":"www.bom.gov.au","srcName":"Bureau of Meteorology","forecastDay":[{"forecastDate":"2023-11-16","maxTemp":"32","minTemp":"18","weatherIcon":2202}]},{"name":"Ayr / Home Hill","lat":"-19.620000000","lng":"147.380000000","isCapital":false,"src":"www.bom.gov.au","srcName":"Bureau of Meteorology","forecastDay":[{"forecastDate":"2023-11-17","maxTemp":"32","minTemp":"20","weatherIcon":2202}]},{"name":"Ayr / Home Hill","lat":"-19.620000000","lng":"147.380000000","isCapital":false,"src":"www.bom.gov.au","srcName":"Bureau of Meteorology","forecastDay":[{"forecastDate":"2023-11-18","maxTemp":"31","minTemp":"21","weatherIcon":2202}]},{"name":"Ayr / Home Hill","lat":"-19.620000000","lng":"147.380000000","isCapital":false,"src":"www.bom.gov.au","srcName":"Bureau of Meteorology","forecastDay":[{"forecastDate":"2023-11-19","maxTemp":"30","minTemp":"22","weatherIcon":2202}]}]},"Bairnsdale":{"city":[{"name":"Bairnsdale","lat":"-37.880000000","lng":"147.570000000","isCapital":false,"src":"www.bom.gov.au","srcName":"Bureau of Meteorology","forecastDay":[{"forecastDate":"2023-11-12","maxTemp":"","minTemp":"","weatherIcon":2202}]},{"name":"Bairnsdale","lat":"-37.880000000","lng":"147.570000000","isCapital":false,"src":"www.bom.gov.au","srcName":"Bureau of Meteorology","forecastDay":[{"forecastDate":"2023-11-13","maxTemp":"21","minTemp":"9","weatherIcon":2202}]},{"name":"Bairnsdale","lat":"-37.880000000","lng":"147.570000000","isCapital":false,"src":"www.bom.gov.au","srcName":"Bureau of Meteorology","forecastDay":[{"forecastDate":"2023-11-14","maxTemp":"20","minTemp":"8","weatherIcon":2301}]},{"name":"Bairnsdale","lat":"-37.880000000","lng":"147.570000000","isCapital":false,"src":"www.bom.gov.au","srcName":"Bureau of Meteorology","forecastDay":[{"forecastDate":"2023-11-15","maxTemp":"19","minTemp":"10","weatherIcon":2301}]},{"name":"Bairnsdale","lat":"-37.880000000","lng":"147.570000000","isCapital":false,"src":"www.bom.gov.au","srcName":"Bureau of Meteorology","forecastDay":[{"forecastDate":"2023-11-16","maxTemp":"19","minTemp":"9","weatherIcon":2301}]},{"name":"Bairnsdale","lat":"-37.880000000","lng":"147.570000000","isCapital":false,"src":"www.bom.gov.au","srcName":"Bureau of Meteorology","forecastDay":[{"forecastDate":"2023-11-17","maxTemp":"21","minTemp":"8","weatherIcon":2202}]},{"name":"Bairnsdale","lat":"-37.880000000","lng":"147.570000000","isCapital":false,"src":"www.bom.gov.au","srcName":"Bureau of Meteorology","forecastDay":[{"forecastDate":"2023-11-18","maxTemp":"22","minTemp":"8","weatherIcon":2202}]},{"name":"Bairnsdale","lat":"-37.880000000","lng":"147.570000000","isCapital":false,"src":"www.bom.gov.au","srcName":"Bureau of Meteorology","forecastDay":[{"forecastDate":"2023-11-19","maxTemp":"24","minTemp":"10","weatherIcon":2202}]}]},"Ballarat":{"city":[{"name":"Ballarat","lat":"-37.510000000","lng":"143.790000000","isCapital":false,"src":"www.bom.gov.au","srcName":"Bureau of Meteorology","forecastDay":[{"forecastDate":"2023-11-12","maxTemp":"","minTemp":"","weatherIcon":2301}]},{"name":"Ballarat","lat":"-37.510000000","lng":"143.790000000","isCapital":false,"src":"www.bom.gov.au","srcName":"Bureau of Meteorology","forecastDay":[{"forecastDate":"2023-11-13","maxTemp":"21","minTemp":"6","weatherIcon":2202}]},{"name":"Ballarat","lat":"-37.510000000","lng":"143.790000000","isCapital":false,"src":"www.bom.gov.au","srcName":"Bureau of Meteorology","forecastDay":[{"forecastDate":"2023-11-14","maxTemp":"18","minTemp":"6","weatherIcon":2301}]},{"name":"Ballarat","lat":"-37.510000000","lng":"143.790000000","isCapital":false,"src":"www.bom.gov.au","srcName":"Bureau of Meteorology","forecastDay":[{"forecastDate":"2023-11-15","maxTemp":"20","minTemp":"6","weatherIcon":2202}]},{"name":"Ballarat","lat":"-37.510000000","lng":"143.790000000","isCapital":false,"src":"www.bom.gov.au","srcName":"Bureau of Meteorology","forecastDay":[{"forecastDate":"2023-11-16","maxTemp":"18","minTemp":"7","weatherIcon":1101}]},{"name":"Ballarat","lat":"-37.510000000","lng":"143.790000000","isCapital":false,"src":"www.bom.gov.au","srcName":"Bureau of Meteorology","forecastDay":[{"forecastDate":"2023-11-17","maxTemp":"21","minTemp":"5","weatherIcon":2202}]},{"name":"Ballarat","lat":"-37.510000000","lng":"143.790000000","isCapital":false,"src":"www.bom.gov.au","srcName":"Bureau of Meteorology","forecastDay":[{"forecastDate":"2023-11-18","maxTemp":"24","minTemp":"6","weatherIcon":2202}]},{"name":"Ballarat","lat":"-37.510000000","lng":"143.790000000","isCapital":false,"src":"www.bom.gov.au","srcName":"Bureau of Meteorology","forecastDay":[{"forecastDate":"2023-11-19","maxTemp":"28","minTemp":"8","weatherIcon":2202}]}]},"Ballina":{"city":[{"name":"Ballina","lat":"-28.840000000","lng":"153.560000000","isCapital":false,"src":"www.bom.gov.au","srcName":"Bureau of Meteorology","forecastDay":[{"forecastDate":"2023-11-12","maxTemp":"","minTemp":"","weatherIcon":2502}]},{"name":"Ballina","lat":"-28.840000000","lng":"153.560000000","isCapital":false,"src":"www.bom.gov.au","srcName":"Bureau of Meteorology","forecastDay":[{"forecastDate":"2023-11-13","maxTemp":"26","minTemp":"17","weatherIcon":2202}]},{"name":"Ballina","lat":"-28.840000000","lng":"153.560000000","isCapital":false,"src":"www.bom.gov.au","srcName":"Bureau of Meteorology","forecastDay":[{"forecastDate":"2023-11-14","maxTemp":"27","minTemp":"17","weatherIcon":2202}]},{"name":"Ballina","lat":"-28.840000000","lng":"153.560000000","isCapital":false,"src":"www.bom.gov.au","srcName":"Bureau of Meteorology","forecastDay":[{"forecastDate":"2023-11-15","maxTemp":"29","minTemp":"18","weatherIcon":2202}]},{"name":"Ballina","lat":"-28.840000000","lng":"153.560000000","isCapital":false,"src":"www.bom.gov.au","srcName":"Bureau of Meteorology","forecastDay":[{"forecastDate":"2023-11-16","maxTemp":"30","minTemp":"19","weatherIcon":203}]},{"name":"Ballina","lat":"-28.840000000","lng":"153.560000000","isCapital":false,"src":"www.bom.gov.au","srcName":"Bureau of Meteorology","forecastDay":[{"forecastDate":"2023-11-17","maxTemp":"24","minTemp":"17","weatherIcon":2202}]},{"name":"Ballina","lat":"-28.840000000","lng":"153.560000000","isCapital":false,"src":"www.bom.gov.au","srcName":"Bureau of Meteorology","forecastDay":[{"forecastDate":"2023-11-18","maxTemp":"24","minTemp":"16","weatherIcon":2301}]},{"name":"Ballina","lat":"-28.840000000","lng":"153.560000000","isCapital":false,"src":"www.bom.gov.au","srcName":"Bureau of Meteorology","forecastDay":[{"forecastDate":"2023-11-19","maxTemp":"25","minTemp":"17","weatherIcon":2202}]}]},"Batemans Bay":{"city":[{"name":"Batemans Bay","lat":"-35.710000000","lng":"150.180000000","isCapital":false,"src":"www.bom.gov.au","srcName":"Bureau of Meteorology","forecastDay":[{"forecastDate":"2023-11-12","maxTemp":"","minTemp":"","weatherIcon":2301}]},{"name":"Batemans Bay","lat":"-35.710000000","lng":"150.180000000","isCapital":false,"src":"www.bom.gov.au","srcName":"Bureau of Meteorology","forecastDay":[{"forecastDate":"2023-11-13","maxTemp":"22","minTemp":"11","weatherIcon":2202}]},{"name":"Batemans Bay","lat":"-35.710000000","lng":"150.180000000","isCapital":false,"src":"www.bom.gov.au","srcName":"Bureau of Meteorology","forecastDay":[{"forecastDate":"2023-11-14","maxTemp":"23","minTemp":"9","weatherIcon":1101}]},{"name":"Batemans Bay","lat":"-35.710000000","lng":"150.180000000","isCapital":false,"src":"www.bom.gov.au","srcName":"Bureau of Meteorology","forecastDay":[{"forecastDate":"2023-11-15","maxTemp":"23","minTemp":"11","weatherIcon":1101}]},{"name":"Batemans Bay","lat":"-35.710000000","lng":"150.180000000","isCapital":false,"src":"www.bom.gov.au","srcName":"Bureau of Meteorology","forecastDay":[{"forecastDate":"2023-11-16","maxTemp":"21","minTemp":"11","weatherIcon":1101}]},{"name":"Batemans Bay","lat":"-35.710000000","lng":"150.180000000","isCapital":false,"src":"www.bom.gov.au","srcName":"Bureau of Meteorology","forecastDay":[{"forecastDate":"2023-11-17","maxTemp":"22","minTemp":"9","weatherIcon":2202}]},{"name":"Batemans Bay","lat":"-35.710000000","lng":"150.180000000","isCapital":false,"src":"www.bom.gov.au","srcName":"Bureau of Meteorology","forecastDay":[{"forecastDate":"2023-11-18","maxTemp":"25","minTemp":"9","weatherIcon":2402}]},{"name":"Batemans Bay","lat":"-35.710000000","lng":"150.180000000","isCapital":false,"src":"www.bom.gov.au","srcName":"Bureau of Meteorology","forecastDay":[{"forecastDate":"2023-11-19","maxTemp":"25","minTemp":"12","weatherIcon":1101}]}]},"Bathurst":{"city":[{"name":"Bathurst","lat":"-33.430000000","lng":"149.560000000","isCapital":false,"src":"www.bom.gov.au","srcName":"Bureau of Meteorology","forecastDay":[{"forecastDate":"2023-11-12","maxTemp":"","minTemp":"","weatherIcon":2202}]},{"name":"Bathurst","lat":"-33.430000000","lng":"149.560000000","isCapital":false,"src":"www.bom.gov.au","srcName":"Bureau of Meteorology","forecastDay":[{"forecastDate":"2023-11-13","maxTemp":"29","minTemp":"6","weatherIcon":2402}]},{"name":"Bathurst","lat":"-33.430000000","lng":"149.560000000","isCapital":false,"src":"www.bom.gov.au","srcName":"Bureau of Meteorology","forecastDay":[{"forecastDate":"2023-11-14","maxTemp":"29","minTemp":"8","weatherIcon":2202}]},{"name":"Bathurst","lat":"-33.430000000","lng":"149.560000000","isCapital":false,"src":"www.bom.gov.au","srcName":"Bureau of Meteorology","forecastDay":[{"forecastDate":"2023-11-15","maxTemp":"27","minTemp":"10","weatherIcon":2202}]},{"name":"Bathurst","lat":"-33.430000000","lng":"149.560000000","isCapital":false,"src":"www.bom.gov.au","srcName":"Bureau of Meteorology","forecastDay":[{"forecastDate":"2023-11-16","maxTemp":"25","minTemp":"9","weatherIcon":2402}]},{"name":"Bathurst","lat":"-33.430000000","lng":"149.560000000","isCapital":false,"src":"www.bom.gov.au","srcName":"Bureau of Meteorology","forecastDay":[{"forecastDate":"2023-11-17","maxTemp":"26","minTemp":"6","weatherIcon":2202}]},{"name":"Bathurst","lat":"-33.430000000","lng":"149.560000000","isCapital":false,"src":"www.bom.gov.au","srcName":"Bureau of Meteorology","forecastDay":[{"forecastDate":"2023-11-18","maxTemp":"28","minTemp":"6","weatherIcon":2202}]},{"name":"Bathurst","lat":"-33.430000000","lng":"149.560000000","isCapital":false,"src":"www.bom.gov.au","srcName":"Bureau of Meteorology","forecastDay":[{"forecastDate":"2023-11-19","maxTemp":"29","minTemp":"9","weatherIcon":1101}]}]},"Beechworth":{"city":[{"name":"Beechworth","lat":"-36.320000000","lng":"146.680000000","isCapital":false,"src":"www.bom.gov.au","srcName":"Bureau of Meteorology","forecastDay":[{"forecastDate":"2023-11-12","maxTemp":"","minTemp":"","weatherIcon":2502}]},{"name":"Beechworth","lat":"-36.320000000","lng":"146.680000000","isCapital":false,"src":"www.bom.gov.au","srcName":"Bureau of Meteorology","forecastDay":[{"forecastDate":"2023-11-13","maxTemp":"25","minTemp":"7","weatherIcon":2402}]},{"name":"Beechworth","lat":"-36.320000000","lng":"146.680000000","isCapital":false,"src":"www.bom.gov.au","srcName":"Bureau of Meteorology","forecastDay":[{"forecastDate":"2023-11-14","maxTemp":"23","minTemp":"9","weatherIcon":2202}]},{"name":"Beechworth","lat":"-36.320000000","lng":"146.680000000","isCapital":false,"src":"www.bom.gov.au","srcName":"Bureau of Meteorology","forecastDay":[{"forecastDate":"2023-11-15","maxTemp":"23","minTemp":"9","weatherIcon":2202}]},{"name":"Beechworth","lat":"-36.320000000","lng":"146.680000000","isCapital":false,"src":"www.bom.gov.au","srcName":"Bureau of Meteorology","forecastDay":[{"forecastDate":"2023-11-16","maxTemp":"23","minTemp":"8","weatherIcon":2402}]},{"name":"Beechworth","lat":"-36.320000000","lng":"146.680000000","isCapital":false,"src":"www.bom.gov.au","srcName":"Bureau of Meteorology","forecastDay":[{"forecastDate":"2023-11-17","maxTemp":"24","minTemp":"6","weatherIcon":2402}]},{"name":"Beechworth","lat":"-36.320000000","lng":"146.680000000","isCapital":false,"src":"www.bom.gov.au","srcName":"Bureau of Meteorology","forecastDay":[{"forecastDate":"2023-11-18","maxTemp":"27","minTemp":"8","weatherIcon":2402}]},{"name":"Beechworth","lat":"-36.320000000","lng":"146.680000000","isCapital":false,"src":"www.bom.gov.au","srcName":"Bureau of Meteorology","forecastDay":[{"forecastDate":"2023-11-19","maxTemp":"30","minTemp":"11","weatherIcon":2202}]}]},"Bega":{"city":[{"name":"Bega","lat":"-36.680000000","lng":"149.830000000","isCapital":false,"src":"www.bom.gov.au","srcName":"Bureau of Meteorology","forecastDay":[{"forecastDate":"2023-11-12","maxTemp":"","minTemp":"","weatherIcon":2202}]},{"name":"Bega","lat":"-36.680000000","lng":"149.830000000","isCapital":false,"src":"www.bom.gov.au","srcName":"Bureau of Meteorology","forecastDay":[{"forecastDate":"2023-11-13","maxTemp":"23","minTemp":"9","weatherIcon":2202}]},{"name":"Bega","lat":"-36.680000000","lng":"149.830000000","isCapital":false,"src":"www.bom.gov.au","srcName":"Bureau of Meteorology","forecastDay":[{"forecastDate":"2023-11-14","maxTemp":"24","minTemp":"8","weatherIcon":2301}]},{"name":"Bega","lat":"-36.680000000","lng":"149.830000000","isCapital":false,"src":"www.bom.gov.au","srcName":"Bureau of Meteorology","forecastDay":[{"forecastDate":"2023-11-15","maxTemp":"22","minTemp":"11","weatherIcon":1101}]},{"name":"Bega","lat":"-36.680000000","lng":"149.830000000","isCapital":false,"src":"www.bom.gov.au","srcName":"Bureau of Meteorology","forecastDay":[{"forecastDate":"2023-11-16","maxTemp":"25","minTemp":"11","weatherIcon":2202}]},{"name":"Bega","lat":"-36.680000000","lng":"149.830000000","isCapital":false,"src":"www.bom.gov.au","srcName":"Bureau of Meteorology","forecastDay":[{"forecastDate":"2023-11-17","maxTemp":"23","minTemp":"7","weatherIcon":2202}]},{"name":"Bega","lat":"-36.680000000","lng":"149.830000000","isCapital":false,"src":"www.bom.gov.au","srcName":"Bureau of Meteorology","forecastDay":[{"forecastDate":"2023-11-18","maxTemp":"26","minTemp":"8","weatherIcon":2402}]},{"name":"Bega","lat":"-36.680000000","lng":"149.830000000","isCapital":false,"src":"www.bom.gov.au","srcName":"Bureau of Meteorology","forecastDay":[{"forecastDate":"2023-11-19","maxTemp":"27","minTemp":"11","weatherIcon":1101}]}]},"Bellerive":{"city":[{"name":"Bellerive","lat":"-42.870000000","lng":"147.370000000","isCapital":false,"src":"www.bom.gov.au","srcName":"Bureau of Meteorology","forecastDay":[{"forecastDate":"2023-11-12","maxTemp":"","minTemp":"","weatherIcon":1101}]},{"name":"Bellerive","lat":"-42.870000000","lng":"147.370000000","isCapital":false,"src":"www.bom.gov.au","srcName":"Bureau of Meteorology","forecastDay":[{"forecastDate":"2023-11-13","maxTemp":"20","minTemp":"10","weatherIcon":2202}]},{"name":"Bellerive","lat":"-42.870000000","lng":"147.370000000","isCapital":false,"src":"www.bom.gov.au","srcName":"Bureau of Meteorology","forecastDay":[{"forecastDate":"2023-11-14","maxTemp":"17","minTemp":"12","weatherIcon":2301}]},{"name":"Bellerive","lat":"-42.870000000","lng":"147.370000000","isCapital":false,"src":"www.bom.gov.au","srcName":"Bureau of Meteorology","forecastDay":[{"forecastDate":"2023-11-15","maxTemp":"18","minTemp":"8","weatherIcon":2202}]},{"name":"Bellerive","lat":"-42.870000000","lng":"147.370000000","isCapital":false,"src":"www.bom.gov.au","srcName":"Bureau of Meteorology","forecastDay":[{"forecastDate":"2023-11-16","maxTemp":"16","minTemp":"10","weatherIcon":1101}]},{"name":"Bellerive","lat":"-42.870000000","lng":"147.370000000","isCapital":false,"src":"www.bom.gov.au","srcName":"Bureau of Meteorology","forecastDay":[{"forecastDate":"2023-11-17","maxTemp":"20","minTemp":"9","weatherIcon":2202}]},{"name":"Bellerive","lat":"-42.870000000","lng":"147.370000000","isCapital":false,"src":"www.bom.gov.au","srcName":"Bureau of Meteorology","forecastDay":[{"forecastDate":"2023-11-18","maxTemp":"20","minTemp":"13","weatherIcon":2301}]},{"name":"Bellerive","lat":"-42.870000000","lng":"147.370000000","isCapital":false,"src":"www.bom.gov.au","srcName":"Bureau of Meteorology","forecastDay":[{"forecastDate":"2023-11-19","maxTemp":"21","minTemp":"11","weatherIcon":2301}]}]},"Ben Lomond":{"city":[{"name":"Ben Lomond","lat":"-41.540000000","lng":"147.670000000","isCapital":false,"src":"www.bom.gov.au","srcName":"Bureau of Meteorology","forecastDay":[{"forecastDate":"2023-11-12","maxTemp":"","minTemp":"","weatherIcon":2202}]},{"name":"Ben Lomond","lat":"-41.540000000","lng":"147.670000000","isCapital":false,"src":"www.bom.gov.au","srcName":"Bureau of Meteorology","forecastDay":[{"forecastDate":"2023-11-13","maxTemp":"12","minTemp":"-2","weatherIcon":2402}]},{"name":"Ben Lomond","lat":"-41.540000000","lng":"147.670000000","isCapital":false,"src":"www.bom.gov.au","srcName":"Bureau of Meteorology","forecastDay":[{"forecastDate":"2023-11-14","maxTemp":"10","minTemp":"0","weatherIcon":1101}]},{"name":"Ben Lomond","lat":"-41.540000000","lng":"147.670000000","isCapital":false,"src":"www.bom.gov.au","srcName":"Bureau of Meteorology","forecastDay":[{"forecastDate":"2023-11-15","maxTemp":"9","minTemp":"0","weatherIcon":1101}]},{"name":"Ben Lomond","lat":"-41.540000000","lng":"147.670000000","isCapital":false,"src":"www.bom.gov.au","srcName":"Bureau of Meteorology","forecastDay":[{"forecastDate":"2023-11-16","maxTemp":"7","minTemp":"-1","weatherIcon":2301}]},{"name":"Ben Lomond","lat":"-41.540000000","lng":"147.670000000","isCapital":false,"src":"www.bom.gov.au","srcName":"Bureau of Meteorology","forecastDay":[{"forecastDate":"2023-11-17","maxTemp":"12","minTemp":"-1","weatherIcon":2202}]},{"name":"Ben Lomond","lat":"-41.540000000","lng":"147.670000000","isCapital":false,"src":"www.bom.gov.au","srcName":"Bureau of Meteorology","forecastDay":[{"forecastDate":"2023-11-18","maxTemp":"13","minTemp":"4","weatherIcon":1101}]},{"name":"Ben Lomond","lat":"-41.540000000","lng":"147.670000000","isCapital":false,"src":"www.bom.gov.au","srcName":"Bureau of Meteorology","forecastDay":[{"forecastDate":"2023-11-19","maxTemp":"12","minTemp":"2","weatherIcon":1101}]}]},"Benalla":{"city":[{"name":"Benalla","lat":"-36.550000000","lng":"146.000000000","isCapital":false,"src":"www.bom.gov.au","srcName":"Bureau of Meteorology","forecastDay":[{"forecastDate":"2023-11-12","maxTemp":"","minTemp":"","weatherIcon":2502}]},{"name":"Benalla","lat":"-36.550000000","lng":"146.000000000","isCapital":false,"src":"www.bom.gov.au","srcName":"Bureau of Meteorology","forecastDay":[{"forecastDate":"2023-11-13","maxTemp":"26","minTemp":"7","weatherIcon":2402}]},{"name":"Benalla","lat":"-36.550000000","lng":"146.000000000","isCapital":false,"src":"www.bom.gov.au","srcName":"Bureau of Meteorology","forecastDay":[{"forecastDate":"2023-11-14","maxTemp":"22","minTemp":"9","weatherIcon":2301}]},{"name":"Benalla","lat":"-36.550000000","lng":"146.000000000","isCapital":false,"src":"www.bom.gov.au","srcName":"Bureau of Meteorology","forecastDay":[{"forecastDate":"2023-11-15","maxTemp":"24","minTemp":"9","weatherIcon":2202}]},{"name":"Benalla","lat":"-36.550000000","lng":"146.000000000","isCapital":false,"src":"www.bom.gov.au","srcName":"Bureau of Meteorology","forecastDay":[{"forecastDate":"2023-11-16","maxTemp":"22","minTemp":"8","weatherIcon":2202}]},{"name":"Benalla","lat":"-36.550000000","lng":"146.000000000","isCapital":false,"src":"www.bom.gov.au","srcName":"Bureau of Meteorology","forecastDay":[{"forecastDate":"2023-11-17","maxTemp":"25","minTemp":"6","weatherIcon":2402}]},{"name":"Benalla","lat":"-36.550000000","lng":"146.000000000","isCapital":false,"src":"www.bom.gov.au","srcName":"Bureau of Meteorology","forecastDay":[{"forecastDate":"2023-11-18","maxTemp":"28","minTemp":"8","weatherIcon":2402}]},{"name":"Benalla","lat":"-36.550000000","lng":"146.000000000","isCapital":false,"src":"www.bom.gov.au","srcName":"Bureau of Meteorology","forecastDay":[{"forecastDate":"2023-11-19","maxTemp":"32","minTemp":"11","weatherIcon":2202}]}]},"Bendigo":{"city":[{"name":"Bendigo","lat":"-36.740000000","lng":"144.320000000","isCapital":false,"src":"www.bom.gov.au","srcName":"Bureau of Meteorology","forecastDay":[{"forecastDate":"2023-11-12","maxTemp":"","minTemp":"","weatherIcon":2202}]},{"name":"Bendigo","lat":"-36.740000000","lng":"144.320000000","isCapital":false,"src":"www.bom.gov.au","srcName":"Bureau of Meteorology","forecastDay":[{"forecastDate":"2023-11-13","maxTemp":"25","minTemp":"7","weatherIcon":2402}]},{"name":"Bendigo","lat":"-36.740000000","lng":"144.320000000","isCapital":false,"src":"www.bom.gov.au","srcName":"Bureau of Meteorology","forecastDay":[{"forecastDate":"2023-11-14","maxTemp":"20","minTemp":"9","weatherIcon":2301}]},{"name":"Bendigo","lat":"-36.740000000","lng":"144.320000000","isCapital":false,"src":"www.bom.gov.au","srcName":"Bureau of Meteorology","forecastDay":[{"forecastDate":"2023-11-15","maxTemp":"24","minTemp":"9","weatherIcon":2202}]},{"name":"Bendigo","lat":"-36.740000000","lng":"144.320000000","isCapital":false,"src":"www.bom.gov.au","srcName":"Bureau of Meteorology","forecastDay":[{"forecastDate":"2023-11-16","maxTemp":"22","minTemp":"8","weatherIcon":2202}]},{"name":"Bendigo","lat":"-36.740000000","lng":"144.320000000","isCapital":false,"src":"www.bom.gov.au","srcName":"Bureau of Meteorology","forecastDay":[{"forecastDate":"2023-11-17","maxTemp":"25","minTemp":"7","weatherIcon":2402}]},{"name":"Bendigo","lat":"-36.740000000","lng":"144.320000000","isCapital":false,"src":"www.bom.gov.au","srcName":"Bureau of Meteorology","forecastDay":[{"forecastDate":"2023-11-18","maxTemp":"28","minTemp":"8","weatherIcon":2402}]},{"name":"Bendigo","lat":"-36.740000000","lng":"144.320000000","isCapital":false,"src":"www.bom.gov.au","srcName":"Bureau of Meteorology","forecastDay":[{"forecastDate":"2023-11-19","maxTemp":"32","minTemp":"11","weatherIcon":2402}]}]},"Bicheno":{"city":[{"name":"Bicheno","lat":"-41.870000000","lng":"148.300000000","isCapital":false,"src":"www.bom.gov.au","srcName":"Bureau of Meteorology","forecastDay":[{"forecastDate":"2023-11-12","maxTemp":"","minTemp":"","weatherIcon":2202}]},{"name":"Bicheno","lat":"-41.870000000","lng":"148.300000000","isCapital":false,"src":"www.bom.gov.au","srcName":"Bureau of Meteorology","forecastDay":[{"forecastDate":"2023-11-13","maxTemp":"20","minTemp":"9","weatherIcon":2402}]},{"name":"Bicheno","lat":"-41.870000000","lng":"148.300000000","isCapital":false,"src":"www.bom.gov.au","srcName":"Bureau of Meteorology","forecastDay":[{"forecastDate":"2023-11-14","maxTemp":"18","minTemp":"11","weatherIcon":2202}]},{"name":"Bicheno","lat":"-41.870000000","lng":"148.300000000","isCapital":false,"src":"www.bom.gov.au","srcName":"Bureau of Meteorology","forecastDay":[{"forecastDate":"2023-11-15","maxTemp":"17","minTemp":"10","weatherIcon":1101}]},{"name":"Bicheno","lat":"-41.870000000","lng":"148.300000000","isCapital":false,"src":"www.bom.gov.au","srcName":"Bureau of Meteorology","forecastDay":[{"forecastDate":"2023-11-16","maxTemp":"17","minTemp":"9","weatherIcon":2301}]},{"name":"Bicheno","lat":"-41.870000000","lng":"148.300000000","isCapital":false,"src":"www.bom.gov.au","srcName":"Bureau of Meteorology","forecastDay":[{"forecastDate":"2023-11-17","maxTemp":"20","minTemp":"9","weatherIcon":2202}]},{"name":"Bicheno","lat":"-41.870000000","lng":"148.300000000","isCapital":false,"src":"www.bom.gov.au","srcName":"Bureau of Meteorology","forecastDay":[{"forecastDate":"2023-11-18","maxTemp":"19","minTemp":"11","weatherIcon":2202}]},{"name":"Bicheno","lat":"-41.870000000","lng":"148.300000000","isCapital":false,"src":"www.bom.gov.au","srcName":"Bureau of Meteorology","forecastDay":[{"forecastDate":"2023-11-19","maxTemp":"19","minTemp":"11","weatherIcon":1101}]}]},"Bondi":{"city":[{"name":"Bondi","lat":"-33.880000000","lng":"151.270000000","isCapital":false,"src":"www.bom.gov.au","srcName":"Bureau of Meteorology","forecastDay":[{"forecastDate":"2023-11-12","maxTemp":"","minTemp":"","weatherIcon":2601}]},{"name":"Bondi","lat":"-33.880000000","lng":"151.270000000","isCapital":false,"src":"www.bom.gov.au","srcName":"Bureau of Meteorology","forecastDay":[{"forecastDate":"2023-11-13","maxTemp":"20","minTemp":"18","weatherIcon":2202}]},{"name":"Bondi","lat":"-33.880000000","lng":"151.270000000","isCapital":false,"src":"www.bom.gov.au","srcName":"Bureau of Meteorology","forecastDay":[{"forecastDate":"2023-11-14","maxTemp":"23","minTemp":"17","weatherIcon":2202}]},{"name":"Bondi","lat":"-33.880000000","lng":"151.270000000","isCapital":false,"src":"www.bom.gov.au","srcName":"Bureau of Meteorology","forecastDay":[{"forecastDate":"2023-11-15","maxTemp":"23","minTemp":"19","weatherIcon":1101}]},{"name":"Bondi","lat":"-33.880000000","lng":"151.270000000","isCapital":false,"src":"www.bom.gov.au","srcName":"Bureau of Meteorology","forecastDay":[{"forecastDate":"2023-11-16","maxTemp":"20","minTemp":"18","weatherIcon":1101}]},{"name":"Bondi","lat":"-33.880000000","lng":"151.270000000","isCapital":false,"src":"www.bom.gov.au","srcName":"Bureau of Meteorology","forecastDay":[{"forecastDate":"2023-11-17","maxTemp":"20","minTemp":"17","weatherIcon":2202}]},{"name":"Bondi","lat":"-33.880000000","lng":"151.270000000","isCapital":false,"src":"www.bom.gov.au","srcName":"Bureau of Meteorology","forecastDay":[{"forecastDate":"2023-11-18","maxTemp":"23","minTemp":"16","weatherIcon":2202}]},{"name":"Bondi","lat":"-33.880000000","lng":"151.270000000","isCapital":false,"src":"www.bom.gov.au","srcName":"Bureau of Meteorology","forecastDay":[{"forecastDate":"2023-11-19","maxTemp":"23","minTemp":"19","weatherIcon":2301}]}]},"Borroloola":{"city":[{"name":"Borroloola","lat":"-16.080000000","lng":"136.300000000","isCapital":false,"src":"www.bom.gov.au","srcName":"Bureau of Meteorology","forecastDay":[{"forecastDate":"2023-11-12","maxTemp":"","minTemp":"","weatherIcon":203}]},{"name":"Borroloola","lat":"-16.080000000","lng":"136.300000000","isCapital":false,"src":"www.bom.gov.au","srcName":"Bureau of Meteorology","forecastDay":[{"forecastDate":"2023-11-13","maxTemp":"36","minTemp":"24","weatherIcon":203}]},{"name":"Borroloola","lat":"-16.080000000","lng":"136.300000000","isCapital":false,"src":"www.bom.gov.au","srcName":"Bureau of Meteorology","forecastDay":[{"forecastDate":"2023-11-14","maxTemp":"38","minTemp":"25","weatherIcon":2202}]},{"name":"Borroloola","lat":"-16.080000000","lng":"136.300000000","isCapital":false,"src":"www.bom.gov.au","srcName":"Bureau of Meteorology","forecastDay":[{"forecastDate":"2023-11-15","maxTemp":"38","minTemp":"24","weatherIcon":2402}]},{"name":"Borroloola","lat":"-16.080000000","lng":"136.300000000","isCapital":false,"src":"www.bom.gov.au","srcName":"Bureau of Meteorology","forecastDay":[{"forecastDate":"2023-11-16","maxTemp":"39","minTemp":"23","weatherIcon":2402}]},{"name":"Borroloola","lat":"-16.080000000","lng":"136.300000000","isCapital":false,"src":"www.bom.gov.au","srcName":"Bureau of Meteorology","forecastDay":[{"forecastDate":"2023-11-17","maxTemp":"41","minTemp":"24","weatherIcon":2402}]},{"name":"Borroloola","lat":"-16.080000000","lng":"136.300000000","isCapital":false,"src":"www.bom.gov.au","srcName":"Bureau of Meteorology","forecastDay":[{"forecastDate":"2023-11-18","maxTemp":"41","minTemp":"25","weatherIcon":2402}]},{"name":"Borroloola","lat":"-16.080000000","lng":"136.300000000","isCapital":false,"src":"www.bom.gov.au","srcName":"Bureau of Meteorology","forecastDay":[{"forecastDate":"2023-11-19","maxTemp":"39","minTemp":"26","weatherIcon":2202}]}]},"Bothwell":{"city":[{"name":"Bothwell","lat":"-42.380000000","lng":"147.000000000","isCapital":false,"src":"www.bom.gov.au","srcName":"Bureau of Meteorology","forecastDay":[{"forecastDate":"2023-11-12","maxTemp":"","minTemp":"","weatherIcon":1101}]},{"name":"Bothwell","lat":"-42.380000000","lng":"147.000000000","isCapital":false,"src":"www.bom.gov.au","srcName":"Bureau of Meteorology","forecastDay":[{"forecastDate":"2023-11-13","maxTemp":"18","minTemp":"4","weatherIcon":2202}]},{"name":"Bothwell","lat":"-42.380000000","lng":"147.000000000","isCapital":false,"src":"www.bom.gov.au","srcName":"Bureau of Meteorology","forecastDay":[{"forecastDate":"2023-11-14","maxTemp":"15","minTemp":"7","weatherIcon":2301}]},{"name":"Bothwell","lat":"-42.380000000","lng":"147.000000000","isCapital":false,"src":"www.bom.gov.au","srcName":"Bureau of Meteorology","forecastDay":[{"forecastDate":"2023-11-15","maxTemp":"17","minTemp":"2","weatherIcon":2202}]},{"name":"Bothwell","lat":"-42.380000000","lng":"147.000000000","isCapital":false,"src":"www.bom.gov.au","srcName":"Bureau of Meteorology","forecastDay":[{"forecastDate":"2023-11-16","maxTemp":"14","minTemp":"4","weatherIcon":1101}]},{"name":"Bothwell","lat":"-42.380000000","lng":"147.000000000","isCapital":false,"src":"www.bom.gov.au","srcName":"Bureau of Meteorology","forecastDay":[{"forecastDate":"2023-11-17","maxTemp":"18","minTemp":"5","weatherIcon":2301}]},{"name":"Bothwell","lat":"-42.380000000","lng":"147.000000000","isCapital":false,"src":"www.bom.gov.au","srcName":"Bureau of Meteorology","forecastDay":[{"forecastDate":"2023-11-18","maxTemp":"21","minTemp":"8","weatherIcon":2202}]},{"name":"Bothwell","lat":"-42.380000000","lng":"147.000000000","isCapital":false,"src":"www.bom.gov.au","srcName":"Bureau of Meteorology","forecastDay":[{"forecastDate":"2023-11-19","maxTemp":"23","minTemp":"6","weatherIcon":1101}]}]},"Bourke":{"city":[{"name":"Bourke","lat":"-30.090000000","lng":"145.940000000","isCapital":false,"src":"www.bom.gov.au","srcName":"Bureau of Meteorology","forecastDay":[{"forecastDate":"2023-11-12","maxTemp":"","minTemp":"","weatherIcon":203}]},{"name":"Bourke","lat":"-30.090000000","lng":"145.940000000","isCapital":false,"src":"www.bom.gov.au","srcName":"Bureau of Meteorology","forecastDay":[{"forecastDate":"2023-11-13","maxTemp":"39","minTemp":"21","weatherIcon":2402}]},{"name":"Bourke","lat":"-30.090000000","lng":"145.940000000","isCapital":false,"src":"www.bom.gov.au","srcName":"Bureau of Meteorology","forecastDay":[{"forecastDate":"2023-11-14","maxTemp":"37","minTemp":"19","weatherIcon":2202}]},{"name":"Bourke","lat":"-30.090000000","lng":"145.940000000","isCapital":false,"src":"www.bom.gov.au","srcName":"Bureau of Meteorology","forecastDay":[{"forecastDate":"2023-11-15","maxTemp":"36","minTemp":"21","weatherIcon":2202}]},{"name":"Bourke","lat":"-30.090000000","lng":"145.940000000","isCapital":false,"src":"www.bom.gov.au","srcName":"Bureau of Meteorology","forecastDay":[{"forecastDate":"2023-11-16","maxTemp":"35","minTemp":"20","weatherIcon":2202}]},{"name":"Bourke","lat":"-30.090000000","lng":"145.940000000","isCapital":false,"src":"www.bom.gov.au","srcName":"Bureau of Meteorology","forecastDay":[{"forecastDate":"2023-11-17","maxTemp":"33","minTemp":"16","weatherIcon":2402}]},{"name":"Bourke","lat":"-30.090000000","lng":"145.940000000","isCapital":false,"src":"www.bom.gov.au","srcName":"Bureau of Meteorology","forecastDay":[{"forecastDate":"2023-11-18","maxTemp":"37","minTemp":"17","weatherIcon":2402}]},{"name":"Bourke","lat":"-30.090000000","lng":"145.940000000","isCapital":false,"src":"www.bom.gov.au","srcName":"Bureau of Meteorology","forecastDay":[{"forecastDate":"2023-11-19","maxTemp":"39","minTemp":"20","weatherIcon":2202}]}]},"Bowen":{"city":[{"name":"Bowen","lat":"-20.020000000","lng":"148.220000000","isCapital":false,"src":"www.bom.gov.au","srcName":"Bureau of Meteorology","forecastDay":[{"forecastDate":"2023-11-12","maxTemp":"","minTemp":"","weatherIcon":2601}]},{"name":"Bowen","lat":"-20.020000000","lng":"148.220000000","isCapital":false,"src":"www.bom.gov.au","srcName":"Bureau of Meteorology","forecastDay":[{"forecastDate":"2023-11-13","maxTemp":"30","minTemp":"19","weatherIcon":2202}]},{"name":"Bowen","lat":"-20.020000000","lng":"148.220000000","isCapital":false,"src":"www.bom.gov.au","srcName":"Bureau of Meteorology","forecastDay":[{"forecastDate":"2023-11-14","maxTemp":"30","minTemp":"19","weatherIcon":2202}]},{"name":"Bowen","lat":"-20.020000000","lng":"148.220000000","isCapital":false,"src":"www.bom.gov.au","srcName":"Bureau of Meteorology","forecastDay":[{"forecastDate":"2023-11-15","maxTemp":"30","minTemp":"19","weatherIcon":2202}]},{"name":"Bowen","lat":"-20.020000000","lng":"148.220000000","isCapital":false,"src":"www.bom.gov.au","srcName":"Bureau of Meteorology","forecastDay":[{"forecastDate":"2023-11-16","maxTemp":"30","minTemp":"20","weatherIcon":2202}]},{"name":"Bowen","lat":"-20.020000000","lng":"148.220000000","isCapital":false,"src":"www.bom.gov.au","srcName":"Bureau of Meteorology","forecastDay":[{"forecastDate":"2023-11-17","maxTemp":"31","minTemp":"20","weatherIcon":2202}]},{"name":"Bowen","lat":"-20.020000000","lng":"148.220000000","isCapital":false,"src":"www.bom.gov.au","srcName":"Bureau of Meteorology","forecastDay":[{"forecastDate":"2023-11-18","maxTemp":"30","minTemp":"21","weatherIcon":2202}]},{"name":"Bowen","lat":"-20.020000000","lng":"148.220000000","isCapital":false,"src":"www.bom.gov.au","srcName":"Bureau of Meteorology","forecastDay":[{"forecastDate":"2023-11-19","maxTemp":"30","minTemp":"22","weatherIcon":2202}]}]},"Bowral":{"city":[{"name":"Bowral","lat":"-34.490000000","lng":"150.400000000","isCapital":false,"src":"www.bom.gov.au","srcName":"Bureau of Meteorology","forecastDay":[{"forecastDate":"2023-11-12","maxTemp":"","minTemp":"","weatherIcon":2202}]},{"name":"Bowral","lat":"-34.490000000","lng":"150.400000000","isCapital":false,"src":"www.bom.gov.au","srcName":"Bureau of Meteorology","forecastDay":[{"forecastDate":"2023-11-13","maxTemp":"20","minTemp":"11","weatherIcon":2202}]},{"name":"Bowral","lat":"-34.490000000","lng":"150.400000000","isCapital":false,"src":"www.bom.gov.au","srcName":"Bureau of Meteorology","forecastDay":[{"forecastDate":"2023-11-14","maxTemp":"26","minTemp":"10","weatherIcon":2202}]},{"name":"Bowral","lat":"-34.490000000","lng":"150.400000000","isCapital":false,"src":"www.bom.gov.au","srcName":"Bureau of Meteorology","forecastDay":[{"forecastDate":"2023-11-15","maxTemp":"24","minTemp":"13","weatherIcon":1101}]},{"name":"Bowral","lat":"-34.490000000","lng":"150.400000000","isCapital":false,"src":"www.bom.gov.au","srcName":"Bureau of Meteorology","forecastDay":[{"forecastDate":"2023-11-16","maxTemp":"19","minTemp":"12","weatherIcon":1101}]},{"name":"Bowral","lat":"-34.490000000","lng":"150.400000000","isCapital":false,"src":"www.bom.gov.au","srcName":"Bureau of Meteorology","forecastDay":[{"forecastDate":"2023-11-17","maxTemp":"19","minTemp":"8","weatherIcon":2301}]},{"name":"Bowral","lat":"-34.490000000","lng":"150.400000000","isCapital":false,"src":"www.bom.gov.au","srcName":"Bureau of Meteorology","forecastDay":[{"forecastDate":"2023-11-18","maxTemp":"26","minTemp":"9","weatherIcon":2202}]},{"name":"Bowral","lat":"-34.490000000","lng":"150.400000000","isCapital":false,"src":"www.bom.gov.au","srcName":"Bureau of Meteorology","forecastDay":[{"forecastDate":"2023-11-19","maxTemp":"24","minTemp":"12","weatherIcon":1101}]}]},"Bridgetown":{"city":[{"name":"Bridgetown","lat":"-33.960000000","lng":"116.140000000","isCapital":false,"src":"www.bom.gov.au","srcName":"Bureau of Meteorology","forecastDay":[{"forecastDate":"2023-11-12","maxTemp":"","minTemp":"","weatherIcon":2202}]},{"name":"Bridgetown","lat":"-33.960000000","lng":"116.140000000","isCapital":false,"src":"www.bom.gov.au","srcName":"Bureau of Meteorology","forecastDay":[{"forecastDate":"2023-11-13","maxTemp":"24","minTemp":"11","weatherIcon":1101}]},{"name":"Bridgetown","lat":"-33.960000000","lng":"116.140000000","isCapital":false,"src":"www.bom.gov.au","srcName":"Bureau of Meteorology","forecastDay":[{"forecastDate":"2023-11-14","maxTemp":"26","minTemp":"11","weatherIcon":1101}]},{"name":"Bridgetown","lat":"-33.960000000","lng":"116.140000000","isCapital":false,"src":"www.bom.gov.au","srcName":"Bureau of Meteorology","forecastDay":[{"forecastDate":"2023-11-15","maxTemp":"25","minTemp":"12","weatherIcon":2301}]},{"name":"Bridgetown","lat":"-33.960000000","lng":"116.140000000","isCapital":false,"src":"www.bom.gov.au","srcName":"Bureau of Meteorology","forecastDay":[{"forecastDate":"2023-11-16","maxTemp":"27","minTemp":"11","weatherIcon":2301}]},{"name":"Bridgetown","lat":"-33.960000000","lng":"116.140000000","isCapital":false,"src":"www.bom.gov.au","srcName":"Bureau of Meteorology","forecastDay":[{"forecastDate":"2023-11-17","maxTemp":"28","minTemp":"11","weatherIcon":2202}]},{"name":"Bridgetown","lat":"-33.960000000","lng":"116.140000000","isCapital":false,"src":"www.bom.gov.au","srcName":"Bureau of Meteorology","forecastDay":[{"forecastDate":"2023-11-18","maxTemp":"26","minTemp":"12","weatherIcon":2301}]},{"name":"Bridgetown","lat":"-33.960000000","lng":"116.140000000","isCapital":false,"src":"www.bom.gov.au","srcName":"Bureau of Meteorology","forecastDay":[{"forecastDate":"2023-11-19","maxTemp":"24","minTemp":"10","weatherIcon":2301}]}]},"Bridport":{"city":[{"name":"Bridport","lat":"-41.000000000","lng":"147.390000000","isCapital":false,"src":"www.bom.gov.au","srcName":"Bureau of Meteorology","forecastDay":[{"forecastDate":"2023-11-12","maxTemp":"","minTemp":"","weatherIcon":2601}]},{"name":"Bridport","lat":"-41.000000000","lng":"147.390000000","isCapital":false,"src":"www.bom.gov.au","srcName":"Bureau of Meteorology","forecastDay":[{"forecastDate":"2023-11-13","maxTemp":"19","minTemp":"5","weatherIcon":2601}]},{"name":"Bridport","lat":"-41.000000000","lng":"147.390000000","isCapital":false,"src":"www.bom.gov.au","srcName":"Bureau of Meteorology","forecastDay":[{"forecastDate":"2023-11-14","maxTemp":"21","minTemp":"8","weatherIcon":2202}]},{"name":"Bridport","lat":"-41.000000000","lng":"147.390000000","isCapital":false,"src":"www.bom.gov.au","srcName":"Bureau of Meteorology","forecastDay":[{"forecastDate":"2023-11-15","maxTemp":"19","minTemp":"9","weatherIcon":2202}]},{"name":"Bridport","lat":"-41.000000000","lng":"147.390000000","isCapital":false,"src":"www.bom.gov.au","srcName":"Bureau of Meteorology","forecastDay":[{"forecastDate":"2023-11-16","maxTemp":"19","minTemp":"7","weatherIcon":2202}]},{"name":"Bridport","lat":"-41.000000000","lng":"147.390000000","isCapital":false,"src":"www.bom.gov.au","srcName":"Bureau of Meteorology","forecastDay":[{"forecastDate":"2023-11-17","maxTemp":"20","minTemp":"6","weatherIcon":2202}]},{"name":"Bridport","lat":"-41.000000000","lng":"147.390000000","isCapital":false,"src":"www.bom.gov.au","srcName":"Bureau of Meteorology","forecastDay":[{"forecastDate":"2023-11-18","maxTemp":"21","minTemp":"9","weatherIcon":2202}]},{"name":"Bridport","lat":"-41.000000000","lng":"147.390000000","isCapital":false,"src":"www.bom.gov.au","srcName":"Bureau of Meteorology","forecastDay":[{"forecastDate":"2023-11-19","maxTemp":"21","minTemp":"10","weatherIcon":2202}]}]},"Brisbane":{"city":[{"name":"Brisbane","lat":"-27.480800000","lng":"153.038900000","isCapital":false,"src":"www.bom.gov.au","srcName":"Bureau of Meteorology","forecastDay":[{"forecastDate":"2023-11-12","maxTemp":"","minTemp":"","weatherIcon":2502}]},{"name":"Brisbane","lat":"-27.480800000","lng":"153.038900000","isCapital":false,"src":"www.bom.gov.au","srcName":"Bureau of Meteorology","forecastDay":[{"forecastDate":"2023-11-13","maxTemp":"31","minTemp":"18","weatherIcon":2402}]},{"name":"Brisbane","lat":"-27.480800000","lng":"153.038900000","isCapital":false,"src":"www.bom.gov.au","srcName":"Bureau of Meteorology","forecastDay":[{"forecastDate":"2023-11-14","maxTemp":"30","minTemp":"19","weatherIcon":2202}]},{"name":"Brisbane","lat":"-27.480800000","lng":"153.038900000","isCapital":false,"src":"www.bom.gov.au","srcName":"Bureau of Meteorology","forecastDay":[{"forecastDate":"2023-11-15","maxTemp":"31","minTemp":"20","weatherIcon":2202}]},{"name":"Brisbane","lat":"-27.480800000","lng":"153.038900000","isCapital":false,"src":"www.bom.gov.au","srcName":"Bureau of Meteorology","forecastDay":[{"forecastDate":"2023-11-16","maxTemp":"32","minTemp":"21","weatherIcon":203}]},{"name":"Brisbane","lat":"-27.480800000","lng":"153.038900000","isCapital":false,"src":"www.bom.gov.au","srcName":"Bureau of Meteorology","forecastDay":[{"forecastDate":"2023-11-17","maxTemp":"28","minTemp":"19","weatherIcon":2202}]},{"name":"Brisbane","lat":"-27.480800000","lng":"153.038900000","isCapital":false,"src":"www.bom.gov.au","srcName":"Bureau of Meteorology","forecastDay":[{"forecastDate":"2023-11-18","maxTemp":"27","minTemp":"19","weatherIcon":2301}]},{"name":"Brisbane","lat":"-27.480800000","lng":"153.038900000","isCapital":false,"src":"www.bom.gov.au","srcName":"Bureau of Meteorology","forecastDay":[{"forecastDate":"2023-11-19","maxTemp":"27","minTemp":"19","weatherIcon":2202}]}]},"Brisbane Airport":{"city":[{"name":"Brisbane Airport","lat":"-27.391700000","lng":"153.129200000","isCapital":false,"src":"www.bom.gov.au","srcName":"Bureau of Meteorology","forecastDay":[{"forecastDate":"2023-11-12","maxTemp":"","minTemp":"","weatherIcon":2502}]},{"name":"Brisbane Airport","lat":"-27.391700000","lng":"153.129200000","isCapital":false,"src":"www.bom.gov.au","srcName":"Bureau of Meteorology","forecastDay":[{"forecastDate":"2023-11-13","maxTemp":"29","minTemp":"18","weatherIcon":2402}]},{"name":"Brisbane Airport","lat":"-27.391700000","lng":"153.129200000","isCapital":false,"src":"www.bom.gov.au","srcName":"Bureau of Meteorology","forecastDay":[{"forecastDate":"2023-11-14","maxTemp":"28","minTemp":"19","weatherIcon":2202}]},