{"Algiers":{"city":[{"name":"Algiers","lat":"36.700000000","lng":"3.220000000","isCapital":true,"src":"www.meteo.dz","srcName":"National Meteorological Office","forecastDay":[{"forecastDate":"2023-11-12","maxTemp":"23","minTemp":"11","weatherIcon":2402}]},{"name":"Algiers","lat":"36.700000000","lng":"3.220000000","isCapital":true,"src":"www.meteo.dz","srcName":"National Meteorological Office","forecastDay":[{"forecastDate":"2023-11-13","maxTemp":"24","minTemp":"10","weatherIcon":2402}]},{"name":"Algiers","lat":"36.700000000","lng":"3.220000000","isCapital":true,"src":"www.meteo.dz","srcName":"National Meteorological Office","forecastDay":[{"forecastDate":"2023-11-14","maxTemp":"24","minTemp":"11","weatherIcon":2402}]}]},"Annaba":{"city":[{"name":"Annaba","lat":"36.900000000","lng":"7.760000000","isCapital":false,"src":"www.meteo.dz","srcName":"National Meteorological Office","forecastDay":[{"forecastDate":"2023-11-12","maxTemp":"22","minTemp":"10","weatherIcon":2402}]},{"name":"Annaba","lat":"36.900000000","lng":"7.760000000","isCapital":false,"src":"www.meteo.dz","srcName":"National Meteorological Office","forecastDay":[{"forecastDate":"2023-11-13","maxTemp":"23","minTemp":"11","weatherIcon":2402}]},{"name":"Annaba","lat":"36.900000000","lng":"7.760000000","isCapital":false,"src":"www.meteo.dz","srcName":"National Meteorological Office","forecastDay":[{"forecastDate":"2023-11-14","maxTemp":"24","minTemp":"10","weatherIcon":2402}]}]},"Bechar":{"city":[{"name":"Bechar","lat":"31.610000000","lng":"-2.220000000","isCapital":false,"src":"www.meteo.dz","srcName":"National Meteorological Office","forecastDay":[{"forecastDate":"2023-11-12","maxTemp":"25","minTemp":"10","weatherIcon":2402}]},{"name":"Bechar","lat":"31.610000000","lng":"-2.220000000","isCapital":false,"src":"www.meteo.dz","srcName":"National Meteorological Office","forecastDay":[{"forecastDate":"2023-11-13","maxTemp":"24","minTemp":"11","weatherIcon":2402}]},{"name":"Bechar","lat":"31.610000000","lng":"-2.220000000","isCapital":false,"src":"www.meteo.dz","srcName":"National Meteorological Office","forecastDay":[{"forecastDate":"2023-11-14","maxTemp":"23","minTemp":"10","weatherIcon":2402}]}]},"Biskra":{"city":[{"name":"Biskra","lat":"34.860000000","lng":"5.730000000","isCapital":false,"src":"www.meteo.dz","srcName":"National Meteorological Office","forecastDay":[{"forecastDate":"2023-11-12","maxTemp":"25","minTemp":"11","weatherIcon":2402}]},{"name":"Biskra","lat":"34.860000000","lng":"5.730000000","isCapital":false,"src":"www.meteo.dz","srcName":"National Meteorological Office","forecastDay":[{"forecastDate":"2023-11-13","maxTemp":"24","minTemp":"10","weatherIcon":2402}]},{"name":"Biskra","lat":"34.860000000","lng":"5.730000000","isCapital":false,"src":"www.meteo.dz","srcName":"National Meteorological Office","forecastDay":[{"forecastDate":"2023-11-14","maxTemp":"23","minTemp":"11","weatherIcon":2402}]}]},"Constantine":{"city":[{"name":"Constantine","lat":"36.360000000","lng":"6.610000000","isCapital":false,"src":"www.meteo.dz","srcName":"National Meteorological Office","forecastDay":[{"forecastDate":"2023-11-12","maxTemp":"23","minTemp":"11","weatherIcon":2402}]},{"name":"Constantine","lat":"36.360000000","lng":"6.610000000","isCapital":false,"src":"www.meteo.dz","srcName":"National Meteorological Office","forecastDay":[{"forecastDate":"2023-11-13","maxTemp":"23","minTemp":"10","weatherIcon":2402}]},{"name":"Constantine","lat":"36.360000000","lng":"6.610000000","isCapital":false,"src":"www.meteo.dz","srcName":"National Meteorological Office","forecastDay":[{"forecastDate":"2023-11-14","maxTemp":"24","minTemp":"11","weatherIcon":2402}]}]},"Djanet":{"city":[{"name":"Djanet","lat":"24.550000000","lng":"9.480000000","isCapital":false,"src":"www.meteo.dz","srcName":"National Meteorological Office","forecastDay":[{"forecastDate":"2023-11-12","maxTemp":"25","minTemp":"10","weatherIcon":2402}]},{"name":"Djanet","lat":"24.550000000","lng":"9.480000000","isCapital":false,"src":"www.meteo.dz","srcName":"National Meteorological Office","forecastDay":[{"forecastDate":"2023-11-13","maxTemp":"24","minTemp":"11","weatherIcon":2402}]},{"name":"Djanet","lat":"24.550000000","lng":"9.480000000","isCapital":false,"src":"www.meteo.dz","srcName":"National Meteorological Office","forecastDay":[{"forecastDate":"2023-11-14","maxTemp":"23","minTemp":"11","weatherIcon":2402}]}]},"Djelfa":{"city":[{"name":"Djelfa","lat":"34.680000000","lng":"3.250000000","isCapital":false,"src":"www.meteo.dz","srcName":"National Meteorological Office","forecastDay":[{"forecastDate":"2023-11-12","maxTemp":"23","minTemp":"11","weatherIcon":2402}]},{"name":"Djelfa","lat":"34.680000000","lng":"3.250000000","isCapital":false,"src":"www.meteo.dz","srcName":"National Meteorological Office","forecastDay":[{"forecastDate":"2023-11-13","maxTemp":"24","minTemp":"10","weatherIcon":2402}]},{"name":"Djelfa","lat":"34.680000000","lng":"3.250000000","isCapital":false,"src":"www.meteo.dz","srcName":"National Meteorological Office","forecastDay":[{"forecastDate":"2023-11-14","maxTemp":"23","minTemp":"11","weatherIcon":2402}]}]},"Ghardaia":{"city":[{"name":"Ghardaia","lat":"32.490000000","lng":"3.680000000","isCapital":false,"src":"www.meteo.dz","srcName":"National Meteorological Office","forecastDay":[{"forecastDate":"2023-11-12","maxTemp":"26","minTemp":"10","weatherIcon":2402}]},{"name":"Ghardaia","lat":"32.490000000","lng":"3.680000000","isCapital":false,"src":"www.meteo.dz","srcName":"National Meteorological Office","forecastDay":[{"forecastDate":"2023-11-13","maxTemp":"25","minTemp":"11","weatherIcon":2402}]},{"name":"Ghardaia","lat":"32.490000000","lng":"3.680000000","isCapital":false,"src":"www.meteo.dz","srcName":"National Meteorological Office","forecastDay":[{"forecastDate":"2023-11-14","maxTemp":"24","minTemp":"11","weatherIcon":2402}]}]},"Oran":{"city":[{"name":"Oran","lat":"35.710000000","lng":"-0.640000000","isCapital":false,"src":"www.meteo.dz","srcName":"National Meteorological Office","forecastDay":[{"forecastDate":"2023-11-12","maxTemp":"22","minTemp":"11","weatherIcon":2402}]},{"name":"Oran","lat":"35.710000000","lng":"-0.640000000","isCapital":false,"src":"www.meteo.dz","srcName":"National Meteorological Office","forecastDay":[{"forecastDate":"2023-11-13","maxTemp":"21","minTemp":"10","weatherIcon":2402}]},{"name":"Oran","lat":"35.710000000","lng":"-0.640000000","isCapital":false,"src":"www.meteo.dz","srcName":"National Meteorological Office","forecastDay":[{"forecastDate":"2023-11-14","maxTemp":"22","minTemp":"11","weatherIcon":2402}]}]},"Setif":{"city":[{"name":"Setif","lat":"36.190000000","lng":"5.410000000","isCapital":false,"src":"www.meteo.dz","srcName":"National Meteorological Office","forecastDay":[{"forecastDate":"2023-11-12","maxTemp":"11","minTemp":"11","weatherIcon":2402}]},{"name":"Setif","lat":"36.190000000","lng":"5.410000000","isCapital":false,"src":"www.meteo.dz","srcName":"National Meteorological Office","forecastDay":[{"forecastDate":"2023-11-13","maxTemp":"10","minTemp":"10","weatherIcon":2402}]},{"name":"Setif","lat":"36.190000000","lng":"5.410000000","isCapital":false,"src":"www.meteo.dz","srcName":"National Meteorological Office","forecastDay":[{"forecastDate":"2023-11-14","maxTemp":"12","minTemp":"9","weatherIcon":2402}]}]},"Tamanrasset":{"city":[{"name":"Tamanrasset","lat":"22.790000000","lng":"5.530000000","isCapital":false,"src":"www.meteo.dz","srcName":"National Meteorological Office","forecastDay":[{"forecastDate":"2023-11-12","maxTemp":"24","minTemp":"10","weatherIcon":2402}]},{"name":"Tamanrasset","lat":"22.790000000","lng":"5.530000000","isCapital":false,"src":"www.meteo.dz","srcName":"National Meteorological Office","forecastDay":[{"forecastDate":"2023-11-13","maxTemp":"23","minTemp":"11","weatherIcon":2402}]},{"name":"Tamanrasset","lat":"22.790000000","lng":"5.530000000","isCapital":false,"src":"www.meteo.dz","srcName":"National Meteorological Office","forecastDay":[{"forecastDate":"2023-11-14","maxTemp":"23","minTemp":"11","weatherIcon":2402}]}]},"Tlemcen":{"city":[{"name":"Tlemcen","lat":"34.800000000","lng":"-1.430000000","isCapital":false,"src":"www.meteo.dz","srcName":"National Meteorological Office","forecastDay":[{"forecastDate":"2023-11-12","maxTemp":"19","minTemp":"11","weatherIcon":2402}]},{"name":"Tlemcen","lat":"34.800000000","lng":"-1.430000000","isCapital":false,"src":"www.meteo.dz","srcName":"National Meteorological Office","forecastDay":[{"forecastDate":"2023-11-13","maxTemp":"19","minTemp":"10","weatherIcon":2402}]},{"name":"Tlemcen","lat":"34.800000000","lng":"-1.430000000","isCapital":false,"src":"www.meteo.dz","srcName":"National Meteorological Office","forecastDay":[{"forecastDate":"2023-11-14","maxTemp":"20","minTemp":"11","weatherIcon":2402}]}]}}